StopId,Name,Latitude,Longitude,ScheduledTime
52246,8th St & Portola Av,37.7688136,-122.2729918,NA
57793,8th St & Portola Av,37.7689929,-122.2727976,NA
56707,1105 Atlantic Av,37.7802724,-122.2640149,NA
57796,Atlantic Av & Challenger Dr,37.7810663,-122.2700596,NA
54332,Atlantic Av & Triumph Dr,37.780799,-122.266125,NA
56717,Atlantic Av & Triumph Dr,37.7806045,-122.2655398,NA
56711,Aughinbaugh Way & Kofman Pkwy,37.7417132,-122.2501248,NA
55876,Aughinbaugh Way & Mecartney Rd,37.7387449,-122.2521401,NA
55852,Aughinbaugh Way & Mecartney Rd,37.7384631,-122.25196,NA
52110,Aughinbaugh Way & Robert Davey Jr Dr,37.7424852,-122.2501082,NA
55487,Aughinbaugh Way & Robert Davey Jr Dr,37.7428892,-122.2499625,NA
56504,Aughinbaugh Way & The Lagoon,37.7409359,-122.2510362,NA
52420,Aughinbaugh Way & The Lagoon,37.7405185,-122.2511912,NA
55987,Blanding Av & Broadway,37.7685807,-122.23377,NA
56668,Blanding Av & Broadway,37.7687412,-122.2337312,NA
52249,Broadway & Santa Clara Av,37.763731,-122.2380619,NA
51545,Broadway & Tilden Way,37.7674598,-122.2351626,NA
52545,Buena Vista Av & Chestnut St,37.7727954,-122.2501047,NA
51770,Buena Vista Av & Chestnut St,37.7724473,-122.2496405,NA
51525,Buena Vista Av & Sherman St,37.7767549,-122.2628258,NA
59771,Buena Vista Av & Walnut St,37.769972,-122.2439454,NA
56722,Buena Vista Av & Walnut St,37.7703221,-122.244416,NA
58993,Buena Vista Av & Willow St,37.7713737,-122.2471736,NA
54233,Central Av & 8th St,37.7714301,-122.2732542,NA
54330,Central Av & 8th St,37.7712326,-122.2732483,NA
53365,Central Av & Webster St,37.7713531,-122.2763974,NA
58996,Challenger Dr & Atlantic Av,37.7814638,-122.2707894,NA
56810,Encinal Av & Mound St,37.757911,-122.236708,NA
56733,Encinal Av & Mound St,37.7577388,-122.2361824,NA
51144,Encinal Av & Park Av W,37.761881,-122.243208,NA
59334,Encinal Av & Versailles Av,37.759236,-122.238676,NA
53004,Fernside Blvd & Harvard Dr,37.7652491,-122.2290664,NA
56989,Fernside Blvd & Harvard Dr,37.7652218,-122.2286908,NA
55879,Fernside Blvd & High St,37.7634794,-122.2265234,NA
59772,Fernside Blvd & High St,37.7636837,-122.2264855,NA
58336,Fernside Blvd & Versailles Av,37.7671394,-122.2322162,NA
54110,Fernside Blvd & Versailles Av,37.7669387,-122.2322286,NA
54784,433 Grand St (Opp. Wood Middle School),37.7616335,-122.2629867,NA
55410,433 Grand St (Wood Middle School),37.761641,-122.262755,NA
59934,Grand St & Shoreline Dr,37.7597478,-122.2638408,NA
57895,Otis Dr & Heather Walk,37.764,-122.2649683,NA
57798,High St & Calhoun St,37.7528686,-122.2377947,NA
57780,High St & Encinal Av,37.7564475,-122.2338546,NA
57727,High St & Encinal Av,37.7563724,-122.2341259,NA
53114,High St & Fairview Av,37.7612697,-122.2285257,NA
58662,High St & Fairview Av,37.7615411,-122.2284027,NA
51021,High St & Otis Dr,37.7520487,-122.2389069,NA
53770,Otis Dr & High St,37.751927,-122.2391886,NA
55235,High St & San Jose Av,37.7550062,-122.2354222,NA
51065,High St & San Jose Av,37.7552401,-122.2353772,NA
51134,High St & Santa Clara Av,37.7589484,-122.2312726,NA
57720,High St & Santa Clara Av,37.7589463,-122.2311002,NA
58663,Island Dr &  Park & Ride,37.7449983,-122.2370817,NA
58815,Island Dr & Bayfarm Park & Ride Lot,37.7454545,-122.2363936,NA
50557,Lincoln Av & 5th St,37.7752297,-122.2820407,NA
55178,Lincoln Av & 5th St,37.7754611,-122.2820317,NA
53314,Lincoln Av & 6th St,37.7751659,-122.2794838,NA
52165,Lincoln Av & 6th St,37.7753567,-122.2791928,NA
57737,Lincoln Av & Webster St,37.7753027,-122.2771588,NA
55363,Main St & Atlantic Av,37.7790222,-122.2913685,NA
57507,1080 Marina Village Pkwy,37.785035,-122.2714799,NA
58321,1201 Marina Village Pkwy,37.7859942,-122.2732866,NA
59987,1250 Marina Village Pkwy,37.7871583,-122.2747179,NA
50116,947 Marina Village Pkwy,37.7847924,-122.2715991,NA
55430,Challenger Dr & Marina Village Pkwy,37.7823441,-122.2717344,NA
57656,Marina Village Pkwy & Challenger Dr,37.7827514,-122.2713608,NA
56715,Marina Village Pkwy & Mariner Square Dr (N Jctn),37.7879249,-122.2760464,NA
58177,Marina Village Pkwy & Mariner Square Dr (N Jctn),37.78804,-122.275728,NA
56716,Marina Village Pkwy & Mariner Sq Loop,37.7883089,-122.2775025,NA
58277,Pacific Av & 4th St,37.7762808,-122.2859513,NA
58377,Mecartney Rd & Auburn Dr,37.7361775,-122.2413885,NA
53488,Mecartney Rd & Baywalk Rd,37.7375659,-122.2490344,NA
59008,Mecartney Rd & Camellia Dr,37.7351779,-122.2371023,NA
58807,Mecartney Rd & Holly St,37.7349791,-122.2369121,NA
50277,Mecartney Rd & Ironwood Rd,37.7370701,-122.2451708,NA
50377,Mecartney Rd & Island Dr,37.7357104,-122.2394097,NA
59949,Mecartney Rd & Melrose Av,37.7338137,-122.2344492,NA
51550,Mecartney Rd & Verdemar Dr,37.7366023,-122.2445097,NA
58817,2217 Otis Dr,37.759356,-122.251237,NA
57790,Otis Dr & Arlington Isle,37.7641653,-122.2648703,NA
50399,Otis Dr & Broadway,37.755766,-122.245055,NA
50119,Otis Dr & Broadway,37.7553481,-122.2445173,NA
57527,Otis Dr & Grand St,37.7630089,-122.2622972,NA
56675,Otis Dr & Grand St,37.7632722,-122.262465,NA
55393,Otis Dr & High St,37.7518787,-122.2387831,NA
56844,Otis Dr & Larchmont Isle,37.7649048,-122.267421,NA
53113,Otis Dr & Larchmont Isle,37.7649616,-122.2670038,NA
56725,Otis Dr & Mound St,37.753353,-122.241165,NA
50450,Otis Dr & Park St,37.7571616,-122.2479736,NA
53994,Otis Dr & Park St,37.757812,-122.248661,NA
58344,Otis Dr & S Shore Ctr,37.75951,-122.251834,NA
51531,Otis Dr & Westline Dr,37.7660709,-122.2711039,NA
55606,Otis Dr & Westline Dr,37.7662635,-122.2714046,NA
58522,Otis Dr & Willow St,37.7606665,-122.2536143,NA
51535,Otis Dr & Willow St,37.760515,-122.253643,NA
59770,Pacific Av & 4th St,37.7765116,-122.2856466,NA
54682,Pacific Av & Main St,37.7766452,-122.2909206,NA
56488,Park St & Blanding Av,37.7704555,-122.2374691,NA
56433,Park St & Clement Av,37.7696307,-122.2381674,NA
57500,Park St & Encinal Av,37.762363,-122.244273,NA
57537,Park St & Otis Dr,37.75731,-122.248732,NA
57797,Park St & Otis Dr,37.7577826,-122.2481334,NA
58895,Park St & San Jose Av,37.7608012,-122.245837,NA
57767,Park St & San Jose Av,37.7607259,-122.245636,NA
51170,Robert Davey Jr Dr & Channing Way,37.7431773,-122.2482477,NA
58843,Robert Davey Jr Dr & Channing Way,37.7428174,-122.2474711,NA
58827,Robert Davey Jr Dr & Oyster Pond Rd,37.742661,-122.2452679,NA
55024,Robert Davey Jr Dr & Oyster Pond Rd,37.7424317,-122.2451071,NA
58837,Robert Davey Jr Dr & Packet Landing Rd,37.7436309,-122.2391738,NA
55278,Robert Davey Jr Dr & Packet Landing Rd,37.7442808,-122.2395939,NA
52270,Robert Davey Jr Dr & Puddingstone Rd,37.743973,-122.2435367,NA
55708,Robert Davey Jr Dr & Puddingstone Rd,37.7442424,-122.2427171,NA
55675,Santa Clara Av & 8th St,37.7731592,-122.2728666,NA
55995,Santa Clara Av & 8th St,37.7733026,-122.2725943,NA
56558,Santa Clara Av & 9th St,37.7732447,-122.2708447,NA
55378,Santa Clara Av & 9th St,37.7731099,-122.2706646,NA
55944,Santa Clara Av & Bay St,37.772879,-122.2647724,NA
55537,Santa Clara Av & Bay St,37.7730757,-122.2649204,NA
57733,Santa Clara Av & Broadway,37.76368,-122.238582,NA
51591,Santa Clara Av & Caroline St,37.7730218,-122.2682168,NA
55579,Santa Clara Av & Chestnut St,37.7697276,-122.2517608,NA
56661,Santa Clara Av & Grand St,37.7715518,-122.2560265,NA
52533,Santa Clara Av & Grand St,37.7715369,-122.2563168,NA
53370,Santa Clara Av & Oak St,37.766038,-122.2437945,NA
55511,Santa Clara Av & Park St,37.765284,-122.241692,NA
59255,Santa Clara Av & Park St,37.765368,-122.242085,NA
57373,Santa Clara Av & Stanton St,37.7727734,-122.2597881,NA
55994,Santa Clara Av & Stanton St,37.7729128,-122.2598869,NA
58944,Santa Clara Av & Walnut St,37.7671924,-122.2463336,NA
59992,Santa Clara Av & Webster St,37.7732718,-122.2764356,NA
51119,Santa Clara Av & Willow St,37.7684832,-122.2489041,NA
57367,2019 Shoreline Dr,37.7574153,-122.258368,NA
52132,Shoreline Dr & Grand St,37.7592807,-122.2637676,NA
54387,Shoreline Dr & Kitty Hawk Rd,37.7581499,-122.2607248,NA
53313,Shoreline Dr & Kitty Hawk Rd,37.758312,-122.2607402,NA
50510,Willow St & Shoreline Dr,37.7570816,-122.256641,NA
55499,Alameda South Shore Center & Kohl's,37.7587494,-122.2531976,NA
50300,Alameda South Shore Center & Kohl's,37.758682,-122.252767,NA
56212,W Midway Av & Saratoga St,37.7858374,-122.3019664,NA
57700,Webster St & Ralph Appezzato Memorial Pkwy,37.7790822,-122.2766923,NA
51551,Webster St & Buena Vista Av,37.7770346,-122.2767695,NA
55549,Webster St & Lincoln Av,37.7754907,-122.2766451,NA
57750,Webster St & Santa Clara Av,37.7730666,-122.27689,NA
52256,Whitehall Pl & Willow St,37.7594087,-122.2547707,NA
51145,Whitehall Pl & Willow St,37.759534,-122.254834,NA
58178,Willow St & Franciscan Way,37.758264,-122.255749,NA
57597,Willow St & Franciscan Way,37.7583757,-122.2558754,NA
58278,Willow St & Shoreline Dr,37.757074,-122.25642,NA
55041,Encinal Av & Broadway,37.760315,-122.240544,NA
50650,Encinal Av & Broadway,37.7603719,-122.2403341,NA
56658,Park St & Buena Vista Av,37.7679678,-122.2398297,NA
52666,Park St & Santa Clara Av,37.7651408,-122.2421298,NA
55546,Park St & Santa Clara Av,37.7656005,-122.241575,NA
51444,Park St & Encinal Av,37.7622156,-122.2446172,NA
58899,Webster St & Lincoln Av,37.7748926,-122.2768192,NA
55975,Webster St & Central Av,37.7717343,-122.2768063,NA
55476,Mecartney Rd & Melrose Av,37.734077,-122.2346562,NA
55444,Webster St & Santa Clara Av,37.7736109,-122.2767112,NA
53422,Buena Vista Av & Willow St,37.771544,-122.247226,NA
50611,Buena Vista Av & Park St,37.7681464,-122.2397354,NA
55523,Alameda South Shore Center At Park St,37.7567781,-122.2491651,NA
55519,Alameda South Shore Center At Park St,37.7570679,-122.2495373,NA
53466,Encinal Av & Versailles Av,37.759358,-122.2385795,NA
55049,Mecartney Rd & Island Dr,37.735499,-122.2395171,NA
58677,Broadway & Blanding Av,37.7685902,-122.2342222,NA
58754,Maitland Dr & Fitchburg Av,37.7309885,-122.2316946,NA
50578,Maitland Dr & Fitchburg Av,37.7307948,-122.231736,NA
56512,Pacific Av & 3rd St,37.7763303,-122.2877262,NA
52578,Pacific Av & Central Av,37.776413,-122.2907678,NA
59400,Webster St & Atlantic Av,37.7802021,-122.2763658,NA
55858,Mecartney Rd & Belmont Place,37.735999,-122.2419679,NA
50251,W Midway Av & Pan Am Way,37.7856216,-122.297892,NA
50259,W Midway Av & Orion St,37.7849998,-122.2943993,NA
50541,Webster St & Willie Stargell Av,37.7828596,-122.27677,NA
50542,Webster St & Willie Stargell Av,37.7831694,-122.2763881,NA
50612,Mariner Sq Loop & Willie Stargell Av,37.7850823,-122.2781774,NA
55064,Bayside Common Condominiums,37.8963137,-122.30815,NA
55448,Jackson St & 8th St,37.8834549,-122.2999811,NA
55990,956 Ohlone Av,37.8855344,-122.301303,NA
52700,545 Pierce St,37.8958126,-122.3081223,NA
55616,Pierce St & Gateview Apts,37.8938688,-122.3072978,NA
56411,Pierce St & Gateview Apts,37.8940856,-122.3071888,NA
55718,Pierce St & Washington Av,37.8895148,-122.3058928,NA
52117,San Pablo Av & Brighton Av,37.8971372,-122.301025,NA
56422,San Pablo Av & Brighton Av,37.8965096,-122.30109,NA
56606,San Pablo Av & Buchanan St,37.8880699,-122.2981122,NA
57957,San Pablo Av & Buchanan St,37.8880964,-122.2984039,NA
55728,San Pablo Av & Castro St,37.8942865,-122.3003764,NA
51166,San Pablo Av & Marin Av (Albany City Hall),37.8864621,-122.2978696,NA
55867,San Pablo Av & Marin Av (Albany City Hall),37.886486,-122.2976044,NA
55978,San Pablo Av & Monroe St,37.884827,-122.2970678,NA
54344,San Pablo Av & Monroe St,37.8844104,-122.2972128,NA
50888,San Pablo Av & Solano Av,37.8900655,-122.2987473,NA
55766,Solano Av & Cornell Av,37.8903904,-122.2958712,NA
55730,Solano Av & Cornell Av,37.8905267,-122.2960187,NA
51212,Solano Av & Curtis St,37.8908709,-122.2871565,NA
55395,Solano Av & Kains Av,37.8903792,-122.29832,NA
55133,Solano Av & Masonic Av,37.8905034,-122.293296,NA
58977,Solano Av & Masonic Av,37.8906925,-122.2934792,NA
56615,Solano Av & Peralta Av,37.8909554,-122.2852393,NA
51915,Solano Av & Ramona Av,37.8907478,-122.2913283,NA
56568,Solano Av & Ramona Av,37.8906403,-122.2909284,NA
52245,Solano Av & Santa Fe Av,37.8907502,-122.2889255,NA
55905,Solano Av & Santa Fe Av,37.8908632,-122.2891941,NA
57975,Solano Av & Ventura Av,37.8910781,-122.2831532,NA
56688,San Pablo Av & Solano Av,37.8899646,-122.2990127,NA
52217,San Pablo Av & Portland Av,37.8933355,-122.2998084,NA
55958,Pierce St & Solano Av,37.8887276,-122.305791,NA
54440,Ohlone Av & West End Way,37.8847305,-122.3050115,NA
55115,Red Oak Av & Kinkead Way,37.8829334,-122.302906,NA
50529,Jackson St & Ohlone Av,37.8854439,-122.3001501,NA
55909,7th St & Anthony St,37.8522852,-122.2916088,NA
55915,7th St & Anthony St,37.8521796,-122.2913787,NA
55970,7th St & Grayson St,37.8554134,-122.2926102,NA
50633,7th St & Grayson St,37.8555686,-122.2925702,NA
58667,7th St & Heinz Av,37.8533342,-122.2917665,NA
55738,7th St & Parker St,37.8586027,-122.2934837,NA
55807,7th St & Parker St,37.8585478,-122.2936647,NA
57566,Addison St & Oxford St,37.8712934,-122.2665493,NA
52252,Adeline St & Alcatraz Av,37.8491153,-122.2710909,NA
52525,Adeline St & Alcatraz Av,37.8484501,-122.2717477,NA
53327,Adeline St & Ashby Av,37.855424,-122.2686188,NA
59978,Adeline St & Ashby BART,37.8525969,-122.2700501,NA
59918,Adeline St & Ashby BART,37.8529129,-122.2695416,NA
59928,Adeline St & Fairview St,37.8510033,-122.2704772,NA
54254,Adeline St & Fairview St,37.8507917,-122.2708478,NA
57220,Adeline St & Oregon St,37.8577582,-122.2677277,NA
57330,Adeline St & Oregon St,37.8570802,-122.2684949,NA
56736,Adeline St & Russell St,37.855491,-122.269009,NA
56910,Adeline St & Ward St,37.8590356,-122.2677908,NA
59578,Adeline St & Ward St,37.8589403,-122.2673283,NA
57990,Arlington Av & Boynton Av,37.9020602,-122.2766039,NA
54578,Arlington Av & Boynton Path,37.9019727,-122.2763655,NA
55107,Arlington Av & Indian Rock Path,37.8920034,-122.2739399,NA
56752,Arlington Av & Indian Rock Path,37.8919892,-122.2742057,NA
53723,Arlington Av & Mendocino Path,37.8931074,-122.2746348,NA
56753,Arlington Av & Mendocino Av,37.893232,-122.2748344,NA
57585,Arlington Av & San Antonio Av,37.8991222,-122.2774213,NA
58768,Arlington Av & San Fernando Av,37.8988243,-122.2765587,NA
57432,Arlington Av & San Luis Rd,37.9009897,-122.2768979,NA
59970,Arlington Av & San Luis Rd,37.900947,-122.2771876,NA
59938,Arlington Av & Southampton Av,37.8944094,-122.274719,NA
51880,Arlington Av & Thousand Oaks Blvd,37.8973786,-122.276286,NA
56759,Arlington Av & Thousand Oaks Blvd,37.8971562,-122.2756917,NA
52880,Arlington Av & Yosemite Rd,37.8949574,-122.2752638,NA
55817,Ashby Av & 7th St,37.8511952,-122.2904636,NA
50667,Ashby Av & Acton St,37.8531617,-122.2809724,NA
54954,Ashby Av & Acton St,37.8532178,-122.2817184,NA
56858,Ashby Av & Adeline St (Ashby BART),37.8551208,-122.26847,NA
52239,Ashby Av & Adeline St (Ashby BART),37.8548118,-122.2686756,NA
50677,Ashby Av & Claremont Av,37.8580919,-122.2457638,NA
52331,Ashby Av & Claremont Av,37.8579768,-122.2456743,NA
58568,Ashby Av & College Av,37.8570133,-122.252661,NA
52336,Ashby Av & Deakin St,37.8558683,-122.2626205,NA
57658,Ashby Av & Deakin St,37.85579,-122.2621734,NA
58820,Ashby Av & Domingo Av,37.8581432,-122.2441151,NA
53756,Ashby Av & Piedmont Av,37.8576213,-122.2508956,NA
59879,Ashby Av & Piedmont Av,37.8577657,-122.2509815,NA
56870,Ashby Av & Pine Av,37.8579065,-122.2487036,NA
57056,Ashby Av & Pine Av,37.8578404,-122.2482105,NA
52300,Ashby Av & San Pablo Av,37.8521703,-122.2862468,NA
52599,Ashby Av & San Pablo Av,37.8521495,-122.2871538,NA
52339,Ashby Av & Shattuck Av,37.855265,-122.2661935,NA
55016,Ashby Av & Shattuck Av,37.8553464,-122.2668332,NA
59300,Ashby Av & Telegraph Av,37.8562067,-122.2601452,NA
56796,Ashby Av & Wheeler St,37.8555882,-122.2648359,NA
58234,Ashby Av & Wheeler St,37.8555157,-122.2642869,NA
59555,Bancroft Way & College Av,37.869294,-122.2551292,NA
55593,Bancroft Way & Dana St,37.8684577,-122.2619131,NA
54050,Bancroft Way & Piedmont Av,37.869607,-122.252647,NA
54455,Bancroft Way & Telegraph Av,37.86866,-122.2599089,NA
56888,Bancroft Way & Telegraph Av,37.8686459,-122.260255,NA
54963,Bancroft Way & Telegraph Av,37.8686135,-122.2605215,NA
55837,Belrose Av & Garber St,37.8609925,-122.2457772,NA
58958,Cedar St & Acton St,37.8763099,-122.2851806,NA
57156,Cedar St & Acton St,37.8764067,-122.285276,NA
58432,Cedar St & Cedar Rose Park,37.8762209,-122.2872537,NA
50234,Cedar St & Cornell Av,37.87548,-122.2916475,NA
54501,Cedar St & Cornell Av,37.875636,-122.2913546,NA
55241,Cedar St & Sacramento St,37.876695,-122.283023,NA
55327,Cedar St & San Pablo Av,37.8753563,-122.2939033,NA
54139,Center St & Shattuck Av (Downtown Berkeley BART),37.870312,-122.26857,NA
58830,Claremont Av & Ashby Av,37.8581967,-122.2453448,NA
57115,Claremont Av & Ashby Av,37.8583901,-122.2449371,NA
57118,Claremont Av & Eton Av,37.8524448,-122.2499761,NA
57228,Claremont Av & Eton Ct,37.8521768,-122.2499542,NA
50432,Claremont Av & Hazel Rd,37.8562848,-122.2466383,NA
50911,Claremont Av & The Uplands,37.8543237,-122.2482454,NA
55762,Claremont Av & Webster St,37.8562251,-122.2469242,NA
55763,Claremont Av & Woolsey St,37.8541152,-122.2486255,NA
51432,Claremont Blvd & Garber St,37.8605046,-122.2456364,NA
55955,College Av & Ashby Av,37.8572871,-122.2529884,NA
55991,College Av & Ashby Av,37.8568243,-122.2531146,NA
50600,College Av & Derby St,37.8618959,-122.2535971,NA
59977,College Av & Derby St,37.8620271,-122.2534823,NA
52223,College Av & Haste St,37.866775,-122.254045,NA
52244,College Av & Haste St,37.8667073,-122.2542,NA
57774,College Av & Parker St,37.8641769,-122.2537122,NA
51199,College Av & Russell St,37.8588152,-122.253145,NA
57655,College Av & Russell St,37.8585914,-122.2532678,NA
52929,College Av & Webster St,37.8557344,-122.2529991,NA
52922,College Av & Webster St,37.8560319,-122.2528855,NA
56585,College Av & Woolsey St,37.8537015,-122.2528211,NA
52323,College Av & Woolsey St,37.8541628,-122.2527026,NA
53410,Colusa Av & Tacoma Av,37.8931585,-122.2803202,NA
51277,Colusa Av & Thousand Oaks Blvd,37.8966768,-122.2854092,NA
57338,Colusa Av & Thousand Oaks Blvd,37.8964797,-122.2851104,NA
51677,Colusa Av & Thousand Oaks School,37.8922537,-122.2801302,NA
56410,Colusa Av & Vincente Av,37.8945645,-122.2823787,NA
52377,Colusa Av & Vincente Av,37.8947025,-122.2828099,NA
57356,Colusa Av & Visalia Av,37.8986336,-122.2856493,NA
51167,Colusa Av & Visalia Av,37.8981956,-122.2856571,NA
55138,Dana St & Haste St,37.8658153,-122.2609932,NA
51510,Derby St & Claremont Blvd,37.8625288,-122.2470974,NA
58860,Derby St & Claremont Blvd,37.8624243,-122.2472811,NA
52333,Durant Av & College Av,37.8683017,-122.2546283,NA
57555,Durant Av & Dana St,37.8674222,-122.2614165,NA
52556,Dwight Way & 7th St,37.8602059,-122.2936777,NA
51667,Dwight Way & 9th St,37.8606144,-122.2921466,NA
55925,Dwight Way & 9th St,37.8606217,-122.2916368,NA
56980,Dwight Way & Bonar St,37.8616092,-122.2860779,NA
57713,Dwight Way & California St,37.8625861,-122.2785657,NA
50977,Dwight Way & California St,37.8624754,-122.278491,NA
59234,Dwight Way & Curtis St,37.8613913,-122.28779,NA
58007,Dwight Way & Grant St,37.8631406,-122.2742684,NA
56586,Dwight Way & Grant St,37.8629779,-122.2745053,NA
51959,Dwight Way & Mabel St,37.8615784,-122.2855696,NA
58575,Dwight Way & Martin Luther King Jr Way,37.8633715,-122.2723963,NA
50575,Dwight Way & Martin Luther King Jr Way,37.8633547,-122.2717459,NA
55313,Dwight Way & Mathews St,37.8613704,-122.2870413,NA
55246,Dwight Way & Mc Gee Av,37.8628517,-122.2765083,NA
58484,Dwight Way & Mc Gee Av,37.8627161,-122.2766639,NA
51180,Dwight Way & Milvia St,37.8635791,-122.2700272,NA
55019,Dwight Way & Sacramento St,37.862292,-122.2809336,NA
55070,Dwight Way & Sacramento St,37.8621848,-122.2806686,NA
50922,Dwight Way & San Pablo Av,37.861088,-122.2899314,NA
56200,Dwight Way & San Pablo Av,37.8611033,-122.2891576,NA
55249,Dwight Way & Valley St,37.8618773,-122.2840081,NA
50877,Dwight Way & Valley St,37.8617771,-122.2839392,NA
57501,1151 Euclid Av,37.8875763,-122.2613165,NA
55264,1152 Euclid Av,37.8877042,-122.2613557,NA
59432,Euclid Av & Acacia Av,37.9009771,-122.2676599,NA
58117,Euclid Av & Acacia Av,37.9006049,-122.2674902,NA
52102,Euclid Av & Bayview Pl,37.8843968,-122.2628079,NA
52105,Euclid Av & Bayview Pl,37.8843847,-122.2626551,NA
57512,Euclid Av & Bret Harte Path,37.8899148,-122.262462,NA
52025,Euclid Av & Bret Harte Path,37.8896342,-122.2626417,NA
53215,Euclid Av & Buena Vista Way,37.8806204,-122.2614859,NA
56320,Euclid Av & Cedar St,37.8795917,-122.2611077,NA
54780,Euclid Av & Cedar St,37.8791979,-122.2610948,NA
52267,Euclid Av & Codornices Park,37.8831175,-122.261757,NA
54357,Euclid Av & Cragmont Av,37.8907635,-122.2637027,NA
51877,Euclid Av & Cragmont Av,37.8907372,-122.2640529,NA
58227,Euclid Av & Easter Way,37.8924638,-122.2650455,NA
57523,Euclid Av & Easter Way,37.8926768,-122.2649088,NA
55294,Euclid Av & Eunice St,37.886371,-122.2623554,NA
50705,Euclid Av & Eunice St,37.8862925,-122.2625037,NA
50933,Euclid Av & Grizzly Peak Blvd,37.9018414,-122.2676119,NA
54373,Euclid Av & Grizzly Peak Blvd,37.9018127,-122.2672783,NA
54375,Euclid Av & Hawthorne Ter,37.8817329,-122.2614474,NA
52667,Euclid Av & Hearst Av,37.875327,-122.260245,NA
54670,Euclid Av & Hilgard Av,37.8785561,-122.2608324,NA
50966,Euclid Av & Le Conte Av,37.8768478,-122.2604547,NA
55126,Euclid Av & Marin Av,37.8950549,-122.2650006,NA
57956,Euclid Av & Marin Av,37.895091,-122.2644829,NA
59756,Euclid Av & Poplar St,37.897656,-122.2668875,NA
51977,Euclid Av & Poplar St,37.8972455,-122.2665893,NA
56587,Euclid Av & Regal Rd,37.8939632,-122.2637674,NA
58337,Euclid Av & Regal Rd,37.8939774,-122.2639263,NA
55304,Euclid Av & Ridge Rd,37.8762084,-122.2604504,NA
54398,Euclid Av & Rock Ln,37.8963079,-122.2657546,NA
50125,Euclid Av & Rock Ln,37.896051,-122.2659611,NA
54865,Euclid Av & Rose Walk,37.883115,-122.261606,NA
50227,Euclid Av & Vine Ln,37.8812269,-122.2615173,NA
55314,Euclid Av & Virginia St,37.8775414,-122.2607302,NA
53700,Gayley Rd & Greek Theater,37.8734718,-122.2552278,NA
58089,Gilman St & 10th St,37.8801622,-122.2970804,NA
50404,Gilman St & 7th St,37.8794895,-122.3004391,NA
52052,Gilman St & 8th St,37.8799035,-122.2990628,NA
51120,Gilman St & Cornell Av,37.8810264,-122.2934169,NA
52077,Gilman St & Cornell Av,37.8809487,-122.2933064,NA
51175,Gilman St & Curtis St,37.8813484,-122.2898735,NA
53367,Gilman St & Neilson St,37.8812402,-122.2889677,NA
53380,Gilman St & Ordway St,37.880554,-122.2865401,NA
52977,Gilman St & Ordway St,37.880747,-122.2868957,NA
57715,Gilman St & San Pablo Av,37.8803254,-122.2962201,NA
52877,Gilman St & Santa Fe Av,37.8813958,-122.2910214,NA
59545,Gilman St & Santa Fe Av,37.8814897,-122.2911094,NA
52502,1411 Grizzly Peak Blvd,37.8847091,-122.2481538,NA
58189,Grizzly Peak Blvd & Arcade Av,37.88691,-122.2510844,NA
58710,Grizzly Peak Blvd & Arcade Av,37.8871243,-122.2514745,NA
57610,Grizzly Peak Blvd & Avenida Dr,37.8848025,-122.2484622,NA
58289,Grizzly Peak Blvd & Creston Rd (North-West Jctn),37.9008462,-122.2664225,NA
58389,Grizzly Peak Blvd & Creston Rd (South-East Jctn),37.8924776,-122.2564314,NA
55769,Grizzly Peak Blvd & Creston Rd (South-East Jctn),37.8925986,-122.2564472,NA
50337,Grizzly Peak Blvd & Creston Rd (North-West Jctn),37.9009522,-122.2663584,NA
58689,Grizzly Peak Blvd & Forest Ln,37.8967294,-122.2612094,NA
51231,Grizzly Peak Blvd & Hill Rd,37.8857622,-122.2492854,NA
59854,Grizzly Peak Blvd & Hill Rd,37.885852,-122.2491607,NA
54014,Grizzly Peak Blvd & Keeler Av,37.8991895,-122.2650993,NA
55364,Grizzly Peak Blvd & Keeler Av,37.899359,-122.2651727,NA
58847,Grizzly Peak Blvd & Latham Ln,37.8941377,-122.2582643,NA
54124,Grizzly Peak Blvd & Latham Ln,37.8940606,-122.2583075,NA
55394,Grizzly Peak Blvd & Marin Av,37.8969575,-122.2615358,NA
57662,Grizzly Peak Blvd & Muir Way,37.8916477,-122.2550003,NA
50226,Grizzly Peak Blvd & Shasta Rd,37.8903388,-122.2522633,NA
54358,Grizzly Peak Blvd & Shasta Rd,37.8904967,-122.2525757,NA
54383,Grizzly Peak Blvd & Stevenson Av,37.8915317,-122.2550192,NA
51220,Grizzly Peak Blvd & Sunset Ln,37.8980463,-122.262039,NA
54513,Grizzly Peak Blvd & Sunset Ln,37.898122,-122.2622887,NA
50229,Haste St & Milvia St,37.8645859,-122.2702866,NA
58005,Haste St & Shattuck Av,37.8649135,-122.2679298,NA
55456,Hearst Av & Arch St,37.8745848,-122.2642342,NA
55006,Hearst Av & Euclid Av,37.8749296,-122.260552,NA
57955,Hearst Av & Le Roy Av,37.8752983,-122.2579698,NA
55180,Henry St & Berryman St,37.8835942,-122.2708677,NA
58533,Henry St & Berryman St,37.8834026,-122.2711115,NA
55129,Hopkins St & Albina Av,37.8805756,-122.284164,NA
55231,Hopkins St & Beverly Pl,37.8843663,-122.276688,NA
53877,Hopkins St & Beverly Pl,37.8841309,-122.2768549,NA
57887,Hopkins St & California St,37.8815633,-122.2820449,NA
53177,Hopkins St & Carlotta Av,37.8825776,-122.2799808,NA
50997,Hopkins St & Colusa Av,37.8829284,-122.2795779,NA
53536,Hopkins St & Monterey Av,37.8818151,-122.2818326,NA
53539,Hopkins St & Sacramento St,37.8807638,-122.2835608,NA
50336,Hopkins St & The Alameda,37.8853396,-122.275195,NA
51077,Marin Av & Arlington Cir,37.8899804,-122.2728407,NA
53667,Marin Av & Lassen St,37.8893762,-122.2747498,NA
52677,Marin Av & Lassen St,37.8891502,-122.2748973,NA
55904,Marin Av & The Circle,37.8898747,-122.2726456,NA
56766,Martin Luther King Jr Way & Allston Way,37.8684404,-122.2727765,NA
59554,Martin Luther King Jr Way & Ashby Av(Ashby BART),37.8543938,-122.2712127,NA
55625,Martin Luther King Jr Way & Ashby Av (Ashby BART),37.8545591,-122.2710115,NA
53457,Martin Luther King Jr Way & Bancroft Way,37.8671762,-122.2724624,NA
55067,Martin Luther King Jr Way & Bancroft Way,37.8667408,-122.2725859,NA
50339,Martin Luther King Jr Way & Berryman St,37.8829748,-122.2743452,NA
56746,Martin Luther King Jr Way & Berryman St,37.8835246,-122.2742612,NA
55914,Martin Luther King Jr Way & Cedar St,37.8780408,-122.2736202,NA
50661,Martin Luther King Jr Way & Cedar St,37.8775991,-122.2738166,NA
55924,Martin Luther King Jr Way & Channing Way,37.8653302,-122.2722652,NA
55236,Martin Luther King Jr Way & Channing Way,37.8649364,-122.2723869,NA
58825,Martin Luther King Jr Way & Derby St,37.8599836,-122.271627,NA
55045,Martin Luther King Jr Way & Derby St,37.8598652,-122.2717846,NA
51622,Martin Luther King Jr Way & Dwight Way,37.8635945,-122.2720271,NA
58115,Martin Luther King Jr Way & Dwight Way,37.8631048,-122.272183,NA
57663,Martin Luther King Jr Way & Hearst Av,37.8734255,-122.2733022,NA
54787,Martin Luther King Jr Way & Parker St,37.861294,-122.2719775,NA
50765,Martin Luther King Jr Way & Parker St,37.8617781,-122.2718262,NA
55280,Martin Luther King Jr Way & Prince St,37.8525986,-122.2710197,NA
52177,Martin Luther King Jr Way & Prince St (Ashby BART),37.852706,-122.270766,NA
57587,Martin Luther King Jr Way & Rose St,37.8812306,-122.2741602,NA
55167,Martin Luther King Jr Way & Rose St,37.8817107,-122.2740858,NA
56546,Martin Luther King Jr Way & Russell St,37.8562219,-122.2714203,NA
50544,Martin Luther King Jr Way & Russell St,37.85637,-122.2712064,NA
55239,Martin Luther King Jr Way & Stuart St,37.8581606,-122.2714175,NA
55602,Martin Luther King Jr Way & Stuart St,37.8577396,-122.2715621,NA
56434,Martin Luther King Jr Way & University Av,37.8711994,-122.2730763,NA
54890,Martin Luther King Jr Way & Vine St,37.8798093,-122.2738293,NA
50662,Martin Luther King Jr Way & Vine St,37.8794475,-122.2739339,NA
56598,Martin Luther King Jr Way & Virginia St,37.8758067,-122.2735586,NA
55200,North Berkeley BART,37.8742903,-122.2831816,NA
51765,Oxford St & Cedar St,37.8786349,-122.2667974,NA
59810,Oxford St & Cedar St,37.878445,-122.2669232,NA
51173,Oxford St & Hearst Av,37.8745069,-122.2662769,NA
51179,Oxford St & Rose St,37.8820965,-122.2671935,NA
55941,Oxford St & Rose St,37.8821175,-122.2673322,NA
50400,Oxford St & University Av,37.8727679,-122.2659805,NA
54120,Oxford St & Vine St,37.880326,-122.2671272,NA
51197,Oxford St & Vine St,37.8803652,-122.2670051,NA
54230,Oxford St & Virginia St,37.876427,-122.2667221,NA
54303,Oxford St & Virginia St,37.8767712,-122.2665834,NA
52995,Piedmont Av & Bancroft Way,37.8696872,-122.2523895,NA
50144,Piedmont Av & Channing Way,37.8674781,-122.2519921,NA
53677,Piedmont Av & Channing Way,37.8680584,-122.2518164,NA
51997,Piedmont Av & Dwight Way,37.8659833,-122.2514105,NA
57725,Piedmont Cr & Dwight Way,37.865846,-122.2507619,NA
58599,Sacramento St & Alcatraz Av,37.8480604,-122.2779412,NA
53556,Sacramento St & Alcatraz Av,37.8484582,-122.2777383,NA
54305,Sacramento St & Allston Way,37.867648,-122.281543,NA
55380,Sacramento St & Allston Way,37.8671016,-122.2818011,NA
52100,Sacramento St & Ashby Av,37.8534575,-122.2792038,NA
58959,Sacramento St & Ashby Av,37.8530991,-122.2788209,NA
52535,Sacramento St & Carleton St,37.8596786,-122.2805236,NA
55820,Sacramento St & Carleton St,37.859839,-122.2802424,NA
52154,Sacramento St & Cedar St,37.876438,-122.282755,NA
53977,Sacramento St & Channing Way,37.8641045,-122.2814846,NA
53765,Sacramento St & Channing Way,37.8639324,-122.2811585,NA
55942,Sacramento St & Delaware St,37.8727984,-122.2823986,NA
55451,Sacramento St & Dwight Way,37.8623058,-122.2813017,NA
53321,Sacramento St & Dwight Way,37.8621164,-122.280932,NA
55830,Sacramento St & Fairview St,37.8500445,-122.2781121,NA
59077,Sacramento St & Fairview St,37.8497467,-122.2783381,NA
52589,Sacramento St & Hearst Av,37.872014,-122.281987,NA
51571,Sacramento St & Oregon St,37.8558911,-122.2794393,NA
58225,Sacramento St & Oregon St,37.8557724,-122.2797097,NA
50570,Sacramento St & Prince St,37.8512528,-122.27869629999999,NA
59177,Sacramento St & Prince St,37.8513992,-122.2784477,NA
55946,Sacramento St & University Av,37.8701289,-122.2817739,NA
53243,Sacramento St & Francisco St (North Berkeley BART),37.8737752,-122.2825203,NA
53254,Sacramento St & Virginia St,37.8751328,-122.2823426,NA
58335,Sacramento St & Ward St,37.8578934,-122.2801567,NA
50122,Sacramento St & Ward St,37.8580687,-122.2798767,NA
52007,San Pablo Av & Allston Way,37.8667243,-122.2912387,NA
59591,San Pablo Av & Allston Way,37.8664811,-122.2914365,NA
52228,San Pablo Av & Ashby Av,37.8518047,-122.2867124,NA
51117,San Pablo Av & Ashby Av,37.8525141,-122.2866745,NA
55267,San Pablo Av & Bancroft Way,37.8648158,-122.2906306,NA
59277,San Pablo Av & Bancroft Way,37.864711,-122.2908692,NA
55165,San Pablo Av & Cedar St,37.8751078,-122.2939514,NA
59600,San Pablo Av & Cedar St,37.8754182,-122.2943294,NA
52207,San Pablo Av & Channing Way,37.8627477,-122.2899564,NA
50344,San Pablo Av & Channing Way,37.8629302,-122.2902994,NA
59755,San Pablo Av & Delaware St,37.871763,-122.2931474,NA
51001,San Pablo Av & Delaware St,37.8720276,-122.2929364,NA
55501,San Pablo Av & Gilman St,37.8798969,-122.2957731,NA
55100,San Pablo Av & Gilman St,37.8808289,-122.2957826,NA
51699,San Pablo Av & Grayson St,37.856426,-122.2879111,NA
53003,San Pablo Av & Grayson St,37.8562943,-122.2881599,NA
52271,San Pablo Av & Harrison St,37.8826484,-122.2963702,NA
55929,San Pablo Av & Harrison St,37.882043,-122.2964516,NA
55603,San Pablo Av & Haskell St,37.8504739,-122.2860016,NA
59377,San Pablo Av & Heinz Av,37.8544557,-122.2875767,NA
55367,San Pablo Av & Oregon St,37.854847,-122.2874076,NA
52273,San Pablo Av & Page St,37.8777732,-122.2948148,NA
53005,San Pablo Av & Page St,37.8773238,-122.2949317,NA
55701,San Pablo Av & Parker St,37.8593157,-122.2888561,NA
56077,San Pablo Av & Parker St,37.8594543,-122.2891699,NA
55996,University Av & San Pablo Av,37.8690637,-122.2917252,NA
58455,Seawall Dr & University Av,37.8628126,-122.3172785,NA
55555,Shattuck Av & Allston Way,37.8694798,-122.2681269,NA
59954,Shattuck Av & Ashby Av,37.8554145,-122.2666197,NA
51101,Shattuck Av & Ashby Av,37.8551064,-122.2664079,NA
53339,Shattuck Av & Cedar St,37.8785363,-122.2692311,NA
51544,Shattuck Av & Cedar St,37.8783441,-122.2689699,NA
55559,Shattuck Sq & Center St (Downtown Berkeley BART),37.8701942,-122.2677299,NA
54588,Shattuck Av & Delaware St,37.875261,-122.2686303,NA
57200,Shattuck Av & Delaware St,37.8745712,-122.2688533,NA
51377,Shattuck Av & Derby St,37.8606709,-122.2671685,NA
59985,Shattuck Av & Derby St,37.8602753,-122.2669167,NA
55226,Shattuck Av & Durant Av,37.8664679,-122.2678119,NA
52155,Shattuck Av & Durant Av,37.8666044,-122.2675167,NA
55452,Shattuck Av & Dwight Way,37.8639087,-122.2672161,NA
54454,Shattuck Av & Dwight Way,37.8637622,-122.267499,NA
51300,Shattuck Av & Haste St,37.8651097,-122.2673677,NA
55999,Shattuck Av & Kittredge St,37.868192,-122.26799,NA
55585,Shattuck Av & Kittredge St,37.8684502,-122.2677224,NA
50151,Shattuck Av & Parker St,37.8620922,-122.2669975,NA
55935,Shattuck Av & Parker St,37.8619267,-122.267279,NA
58889,Shattuck Av & University Av,37.8723686,-122.2685425,NA
57776,Shattuck Av & University Av,37.8725413,-122.2683189,NA
55507,Shattuck Av & Vine St,37.8803196,-122.2694552,NA
55652,Shattuck Av & Vine St,37.8801384,-122.2691715,NA
57225,Shattuck Av & Virginia St,37.8765197,-122.2687525,NA
56654,Shattuck Av & Virginia St,37.8763506,-122.2690019,NA
55453,Shattuck Av & Woolsey St,37.8523011,-122.2660266,NA
52592,Shattuck Av & Woolsey St,37.8524674,-122.2662239,NA
59899,Shattuck Pl & Rose St,37.8818696,-122.2701155,NA
55454,Shattuck Pl & Rose St,37.8817029,-122.2703548,NA
55265,Solano Av & Colusa Av,37.8914393,-122.2796948,NA
57799,Solano Av & Colusa Av,37.8912973,-122.2787612,NA
51922,Solano Av & Ensenada Av,37.8913298,-122.281795,NA
50750,Solano Av & Ensenada Av,37.8911716,-122.2815398,NA
51233,Solano Av & Peralta Av,37.8910902,-122.2859579,NA
52279,Solano Av & Tacoma Av,37.8911892,-122.2840643,NA
54300,Solano Av & The Alameda,37.8911012,-122.2762231,NA
51251,Solano Av & The Alameda,37.8915546,-122.2775066,NA
53823,533 Spruce St,37.9013097,-122.2695105,NA
53856,Spruce St & Acacia Walk,37.899376,-122.2708258,NA
54315,Spruce St & Eunice St,37.886299,-122.2665548,NA
52297,Spruce St & Eunice St,37.8858811,-122.2666443,NA
54065,Spruce St & Glen Av,37.884088,-122.2662955,NA
57010,Spruce St & Glen Av,37.8838997,-122.26639,NA
56277,Spruce St & Grizzly Peak Blvd,37.9043126,-122.2697595,NA
54165,Spruce St & Halkin Ln,37.8979715,-122.2698601,NA
54265,Spruce St & Los Angeles Av,37.8883548,-122.2667648,NA
55321,Spruce St & Los Angeles Av,37.8884524,-122.2668507,NA
54351,Spruce St & Marin Av,37.8933683,-122.267895,NA
50105,Spruce St & Marin Av,37.8930173,-122.2675948,NA
54965,Spruce St & Montrose Rd,37.8952668,-122.2689793,NA
53458,Spruce St & Rose St,37.8827968,-122.2661276,NA
54352,Spruce St & Rose St,37.8826245,-122.266223,NA
55712,Spruce St & San Benito Rd,37.8909019,-122.2672971,NA
57467,Spruce St & San Benito Rd,37.8908918,-122.2671605,NA
54359,Spruce St & Santa Barbara Rd,37.8921842,-122.266921,NA
55860,Spruce St & Santa Barbara Rd,37.8919776,-122.2671408,NA
54363,Spruce St & Vassar Av,37.9023989,-122.2705699,NA
57740,Sutter St & Hopkins St,37.8884182,-122.2722683,NA
56300,Sutter St & Hopkins St,37.8885757,-122.2725035,NA
59592,Sutter St & Yolo Av,37.8862446,-122.2718941,NA
57050,Telegraph Av & Ashby Av,37.8559671,-122.2595991,NA
57088,Telegraph Av & Ashby Av,37.8564047,-122.2597868,NA
59593,Telegraph Av & Derby St,37.8611571,-122.2591262,NA
51015,Telegraph Av & Derby St,37.86161,-122.2588175,NA
51555,Telegraph Av & Dwight Way,37.8645066,-122.2586205,NA
57711,Telegraph Av & Dwight Way,37.86499,-122.2583646,NA
51244,Telegraph Av & Haste St,37.8662926,-122.2586101,NA
58835,Telegraph Av & Parker St,37.8629168,-122.2588823,NA
52250,Telegraph Av & Parker St,37.8630675,-122.2586048,NA
58220,Telegraph Av & Prince St,37.8536216,-122.2599399,NA
58330,Telegraph Av & Russell St,37.8577892,-122.2595891,NA
52424,Telegraph Av & Russell St,37.8579421,-122.2593377,NA
51005,Telegraph Av & Stuart St,37.8599207,-122.2590274,NA
51215,Telegraph Av & Stuart St,37.8597132,-122.2593317,NA
55529,Telegraph Av & Webster St,37.8553154,-122.2599345,NA
51114,Telegraph Av & Webster St,37.8551106,-122.2597167,NA
55619,The Alameda & Hopkins St,37.8854971,-122.2751355,NA
56044,The Alameda & Hopkins St,37.8857637,-122.2751423,NA
52342,The Alameda & Marin Av,37.8886815,-122.2763706,NA
55964,The Alameda & Monterey Av,37.8877299,-122.2764094,NA
57735,The Alameda & Solano Av,37.8911639,-122.2771114,NA
53451,Tunnel Rd & Bridge Rd,37.8552681,-122.2382383,NA
51252,Tunnel Rd & Domingo Av (Ashby Av),37.8579111,-122.243462,NA
57807,Tunnel Rd & Roble Rd,37.8542251,-122.2366888,NA
53452,Tunnel Rd & The Uplands,37.8552812,-122.2389848,NA
57817,Tunnel Rd & Vicente Rd,37.853842,-122.2359954,NA
55967,Piedmont Av & UC Faculty Club,37.8710052,-122.252833,NA
58883,University Av & 3rd St,37.867275,-122.300677,NA
52355,University Av & 4th St,37.8677265,-122.2997303,NA
54477,University Av & 4th St,37.867465,-122.2995568,NA
55548,University Av & 6th St,37.8679427,-122.297351,NA
51105,University Av & 6th St,37.8681567,-122.2974137,NA
59004,University Av & 9th St,37.868791,-122.294305,NA
55855,University Av & 9th St,37.8685999,-122.2940789,NA
59900,University Av & Acton St,37.8700912,-122.2839188,NA
52595,University Av & Bait Shop,37.8637432,-122.3134947,NA
58660,University Av & Bait Shop,37.8638342,-122.3138199,NA
57335,University Av & Bonar St,37.8698362,-122.2874175,NA
51900,University Av & Grant St,37.8712154,-122.2748915,NA
58851,University Av & Grant St,37.8714122,-122.275174,NA
54393,University Av & Marina Blvd,37.8647648,-122.3115373,NA
52997,University Av & Marina Blvd,37.8650961,-122.3106828,NA
57557,University Av & Martin Luther King Jr Way,37.8717,-122.2728718,NA
55988,University Av & Martin Luther King Jr Way,37.871544,-122.2726715,NA
55722,University Av & Sacramento St,37.8705864,-122.2816273,NA
56667,University Av & Sacramento St,37.8703678,-122.2813466,NA
55365,University Av & San Pablo Av,37.8692513,-122.2918451,NA
54466,University Av & Shattuck Av,37.8720318,-122.2685686,NA
57827,University Av & W Frontage Rd,37.8663995,-122.3060351,NA
54395,University Av & W Frontage Rd,37.8661659,-122.3056991,NA
58778,Warring St & Derby St,37.8627459,-122.2501296,NA
54767,Warring St & Derby St,37.8624556,-122.2502049,NA
55664,Warring St & Parker St,37.8645385,-122.2502656,NA
59114,Warring St & Parker St,37.8642427,-122.2503914,NA
56377,Spruce St & Grizzly Peak Blvd,37.9043805,-122.2703614,NA
57188,Spruce St & Vassar Av,37.9020986,-122.2707551,NA
57001,551 Spruce St,37.9007374,-122.2701443,NA
51160,Spruce St & Halkin Ln,37.8978712,-122.2699824,NA
55880,San Pablo Av & Dwight Way,37.8614662,-122.2895464,NA
55525,San Pablo Av & University Av,37.869467,-122.2921181,NA
55111,San Pablo Av & University Av,37.8687057,-122.2920896,NA
57755,San Pablo Av & Dwight Way,37.8607944,-122.2895828,NA
52566,University Av & San Pablo Av,37.869114,-122.2925441,NA
57300,University Av & Shattuck Av,37.8721194,-122.2679845,NA
57288,7th St & Cutter Way,37.8595942,-122.2939812,NA
57837,Martin Luther King Jr Way & Allston Way,37.8684457,-122.2726289,NA
56144,Cedar St & San Pablo Av,37.8752017,-122.2937596,NA
57082,Centennial Dr & Parking Lot,37.8804159,-122.246653,NA
50991,Centennial Dr & Parking Lot,37.8811045,-122.246038,NA
54655,Bancroft Way & Ellsworth St,37.8681685,-122.2640833,NA
58558,Hearst Av & Arch St,37.8744319,-122.2640813,NA
51575,Martin Luther King Jr Way & University Av,37.8720318,-122.2729934,NA
50444,University Av & Shattuck Av,37.8722013,-122.268776,NA
54354,Gilman St & San Pablo Av,37.8804523,-122.2963689,NA
56521,Oxford St & University Av,37.8721728,-122.2662041,NA
55998,Sacramento St & University Av,37.870072,-122.28208,NA
50604,Sacramento St & Delaware St (North Berkeley BART),37.8733303,-122.2821516,NA
58156,Redwood Rd & Mabel Av,37.7029026,-122.0739034,NA
58256,Redwood Rd & Hyer Av,37.705434,-122.0739212,NA
59664,Redwood Rd & Seven Hills Rd,37.7092192,-122.0741173,NA
58978,Redwood Rd & Mabel Av,37.7034828,-122.0741612,NA
59494,Redwood Rd & Grove Way,37.68451,-122.0737455,NA
54374,1529 Arlington Blvd,37.9295723,-122.3004565,NA
59904,1525 Arlington Blvd,37.9295116,-122.3000488,NA
52010,1749 Arlington Blvd,37.9300286,-122.306435,NA
54587,Arlington Blvd & Brewster Dr,37.9223521,-122.2924898,NA
59914,Arlington Blvd & Brewster Dr,37.9275396,-122.2962923,NA
55629,Arlington Blvd & Brewster Dr,37.9222415,-122.2926449,NA
52125,Arlington Blvd & Buckingham Dr,37.9252191,-122.2942159,NA
56944,Arlington Blvd & Cutting Blvd,37.9324686,-122.3095536,NA
54576,Arlington Blvd & Cutting Blvd,37.9325615,-122.3093885,NA
59344,Arlington Blvd & Don Carol Dr,37.920921,-122.2888663,NA
54676,Arlington Blvd & Don Carol Dr,37.9210399,-122.2890806,NA
59924,Arlington Blvd & Havens Pl,37.9216786,-122.2912604,NA
59881,Arlington Blvd & Lamm Ct,37.9170863,-122.2843719,NA
54710,Arlington Blvd & Moeser Ln,37.9195295,-122.286732,NA
55610,Arlington Blvd & Moeser Ln,37.9195452,-122.2869133,NA
50992,Arlington Blvd & Potrero Av,37.9295812,-122.3048288,NA
58478,Arlington Blvd & Potrero Av,37.9297545,-122.3045751,NA
56867,Arlington Blvd & Rifle Range Rd,37.9256001,-122.2943455,NA
50201,Arlington Blvd & Scenic St,37.9304951,-122.3065428,NA
50356,6509 Barrett Av,37.9359541,-122.3089539,NA
57223,Barrett Av & Arlington Blvd,37.9348207,-122.3080012,NA
59941,Barrett Av & Arlington Blvd,37.9350318,-122.3080041,NA
55459,Barrett Av & Carquinez Av (Tehiyah Day School),37.9363407,-122.3117965,NA
51190,Barrett Av & Carquinez Av (Tehiyah Day School),37.9364482,-122.3119107,NA
54384,Barrett Av & Edwards Av,37.9366269,-122.3162095,NA
54898,Barrett Av & Edwards Av,37.9364209,-122.3165188,NA
50993,Barrett Av & Harris Av,37.9349514,-122.3197712,NA
57670,Barrett Av & La Honda Av,37.9359817,-122.3093191,NA
53307,Barrett Av & Tulare Av,37.93639,-122.3144668,NA
50996,Barrett Av & Tulare Av,37.9362977,-122.3147416,NA
59010,Barrett Av & Tuller Av,37.9355426,-122.3195047,NA
51321,Barrett Av & Yuba St,37.9361671,-122.3175836,NA
53317,Barrett Av & Yuba St,37.9360031,-122.3178741,NA
50512,Carlson Blvd & Central Av,37.9021822,-122.3046174,NA
52033,Central Av & Carlson Blvd,37.9019341,-122.3050039,NA
52544,Central Av & San Pablo Av,37.9023433,-122.3031074,NA
52066,Central Av & San Pablo Av,37.902316,-122.3029291,NA
50601,Central Av & Yosemite Av,37.9017481,-122.3053282,NA
58780,Colusa Av & Curry Av,37.9029951,-122.2886687,NA
52625,Colusa Av & Fairmount Av,37.9038941,-122.2907684,NA
59882,Colusa Av & Lynn Av,37.9008654,-122.2884088,NA
59883,Cutting Blvd & Peerless Av,37.9252785,-122.3196878,NA
53544,Cutting Blvd & San Pablo Av,37.9255422,-122.3192694,NA
50500,El Cerrito Plaza BART,37.9023544,-122.2988663,NA
57286,El Cerrito Plaza BART,37.9028879,-122.2990129,NA
51177,El Cerrito Plaza BART,37.9025374,-122.2987058,NA
57900,El Cerrito Plaza BART,37.9023162,-122.2985977,NA
52501,Fairmount Av & Albermarle St,37.9028902,-122.2953561,NA
53371,Fairmount Av & Ashbury Av,37.9031833,-122.2939918,NA
52612,Fairmount Av & Ashbury Av,37.9032563,-122.2941632,NA
57543,Fairmount Av & Behrens St,37.9027342,-122.2954594,NA
59942,Fairmount Av & Colusa Av,37.9041196,-122.2914066,NA
52912,Fairmount Av & Richmond St,37.902117,-122.2978516,NA
56570,Fairmount Av & Victoria St,37.9023624,-122.2966389,NA
55562,San Pablo Av & Carlson Blvd,37.8993474,-122.3018656,NA
52221,San Pablo Av & Carlson Blvd,37.8985804,-122.3018116,NA
59596,San Pablo Av & Central Av,37.902337,-122.3035484,NA
53372,San Pablo Av & Conlon Av,37.929789,-122.3214341,NA
51356,San Pablo Av & Cutting Blvd (Del Norte BART),37.9250379,-122.318029,NA
52115,San Pablo Av & Cutting Blvd (Del Norte BART),37.9250151,-122.3184424,NA
52925,San Pablo Av & Fairmount Av,37.9002025,-122.3025546,NA
50889,San Pablo Av & Hill St,37.9229063,-122.3169132,NA
52230,San Pablo Av & Home Depot,37.929203,-122.3213407,NA
54345,San Pablo Av & Jefferson Av,37.91721,-122.3128669,NA
52325,San Pablo Av & Lincoln Av,37.9042389,-122.3041512,NA
51557,San Pablo Av & Manila Av (El Cerrito City Hall),37.9156842,-122.3114419,NA
58855,San Pablo Av & Moeser Ln,37.9118636,-122.3088239,NA
55117,San Pablo Av & Potrero Av,37.9212017,-122.3153301,NA
55506,San Pablo Av & Potrero Av,37.9201579,-122.3149446,NA
51660,San Pablo Av & Schmidt Ln,37.9139129,-122.3102122,NA
51162,San Pablo Av & Wall Av,37.9276204,-122.3202159,NA
56110,San Pablo Av & Wall Av,37.9278225,-122.3200359,NA
51781,Arlington Blvd & Villa Nueva Dr,37.9217411,-122.2911062,NA
55594,San Pablo Av & Moeser Ln,37.9110726,-122.3086152,NA
50616,San Pablo Av & El Dorado St,37.9037658,-122.3042354,NA
54855,40th St & Emery St,37.830607,-122.2813223,NA
56771,40th St & Harlan St,37.8301886,-122.2834458,NA
56610,40th St & Harlan St,37.8304827,-122.2831232,NA
50577,40th St & Hollis St,37.8299006,-122.2848815,NA
57578,40th St & Hollis St,37.8300574,-122.2851836,NA
56772,65th St & Shellmound St (Bay St),37.846228,-122.2953678,NA
52782,65th St & Shellmound St (Bay St),37.8461395,-122.2948072,NA
54434,Christie Av & 64th St,37.8437058,-122.2958255,NA
52785,Christie Av & 64th St,37.8445979,-122.2959462,NA
53734,Christie Av & 65th St,37.8460484,-122.2964005,NA
51163,Christie Av & 65th St,37.8456582,-122.2964532,NA
58617,Christie St & Powell Street Plaza Shopping Center,37.8374333,-122.2944896,NA
59886,Hollis St & 45th St,37.8332277,-122.2864743,NA
53235,Hollis St & 45th St,37.833219,-122.2866193,NA
50543,Hollis St & 53rd St,37.8362714,-122.2876022,NA
53397,Hollis St & 53rd St,37.8357748,-122.2876212,NA
56773,Hollis St & 65th St,37.8470314,-122.2915194,NA
55843,Hollis St & 67th St,37.8489806,-122.2922984,NA
54989,Hollis St & 67th St,37.8490446,-122.292153,NA
56779,Hollis St & 40th St,37.8291881,-122.2850173,NA
59559,Hollis St & 40th St (Home Depot),37.8295245,-122.2853833,NA
54314,Hollis St & Stanford Av,37.8386342,-122.288983,NA
57751,San Pablo Av & 37th St,37.8276226,-122.278655,NA
55505,San Pablo Av & 40th St,37.830609,-122.279851,NA
50355,San Pablo Av & 45th St,37.8344793,-122.2808578,NA
51990,San Pablo Av & 47th St (Emeryville High School),37.8352626,-122.2813791,NA
52330,San Pablo Av & 47th St (Emeryville High School),37.8359245,-122.2813159,NA
55535,San Pablo Av & 40th St,37.8314868,-122.2798835,NA
57688,Hollis St & 59th St,37.8415761,-122.2898105,NA
50654,Hollis St & 64th St,37.8450598,-122.2908868,NA
56977,Hollis St & 59th St,37.8410269,-122.2897692,NA
57988,Shellmound St & Bay St,37.8339879,-122.2932929,NA
52257,40th St & Horton St,37.829439,-122.2872673,NA
50505,Shellmound St & Shellmound Way,37.840254,-122.2935668,NA
55691,Hollis St & 63rd St,37.8436586,-122.2905834,NA
52260,40th St & Horton St,37.8294947,-122.2879624,NA
50927,40th St & San Pablo Av,37.8310296,-122.2793674,NA
50937,40th St & San Pablo Av,37.8310753,-122.279039,NA
50971,40th St & Adeline St,37.8311344,-122.2787876,NA
51627,40th St & San Pablo Av,37.8312559,-122.2793366,NA
51637,40th St & San Pablo Av,37.8312016,-122.2796107,NA
51697,Shellmound St & Bay St,37.8333482,-122.2936413,NA
50148,Christie Av & Pacific Park Plaza,37.8426517,-122.2955083,NA
50163,40th St & Emery St,37.8308023,-122.2815694,NA
50528,65th St & Hollis St,37.8467131,-122.2921582,NA
58774,Alvarado Blvd & Deep Creek Rd,37.5801295,-122.0510434,NA
52633,Alvarado Blvd & Deep Creek Rd,37.5802341,-122.0519061,NA
58551,Alvarado Blvd & Falcon Dr,37.58458,-122.0606714,NA
55692,Alvarado Blvd & Great Salt Lake Ct,37.5835136,-122.0578007,NA
51192,Alvarado Blvd & Lake Arrowhead Av,37.5857575,-122.0621608,NA
57752,Alvarado Blvd & Merganser Dr,37.5828516,-122.0571635,NA
51193,Ardenwood Blvd & Ardenwood Ter,37.552794,-122.053743,NA
54394,Ardenwood Blvd & Commerce Dr,37.554536,-122.06219,NA
51654,Ardenwood Blvd & Tan Oak Dr,37.5588882,-122.0636914,NA
58100,Ardenwood Blvd & Tan Oak Dr,37.559332,-122.063392,NA
53783,Auto Mall Pkwy & Fremont Blvd,37.5117775,-121.9527223,NA
56857,Auto Mall Pkwy & Technology Dr,37.510791,-121.9549281,NA
57045,Auto Mall Pkwy & Technology Dr,37.5113235,-121.9548701,NA
57568,Bryant St & Cedar St,37.5300466,-121.9219886,NA
57805,Bryant St & Pine St,37.5258661,-121.9206987,NA
54212,Civic Center Dr & BART Way,37.5551599,-121.9781574,NA
55965,Civic Center Dr & Mowry Av (Washington Hospital),37.5564589,-121.9803544,NA
55693,Civic Center Dr & Stevenson Blvd,37.5521999,-121.9721352,NA
51275,Civic Center Dr & Stevenson Blvd,37.5524728,-121.9721033,NA
56002,Civic Center Dr & Walnut Av,37.5536302,-121.9751246,NA
51671,Civic Center Dr & Walnut Av,37.5539429,-121.9752453,NA
52911,Decoto Rd & Cabrillo Dr,37.5666085,-122.036344,NA
51313,Decoto Rd & Cabrillo Dr,37.5665215,-122.0359951,NA
50501,Decoto Rd & Fremont Blvd,37.5716267,-122.0315043,NA
51561,Decoto Rd & Mount Palomar Ct,37.5727492,-122.0308919,NA
54232,Decoto Rd & Ozark River Way,37.5688564,-122.0340068,NA
55056,Decoto Rd & Ozark River Way,37.5683303,-122.0349189,NA
51512,Fremont BART,37.5576427,-121.9759281,NA
53000,Fremont BART,37.5574963,-121.9760247,NA
55477,Fremont BART,37.5572799,-121.9759661,NA
57093,Fremont BART,37.5571606,-121.9758065,NA
51008,Fremont BART,37.5577149,-121.9756639,NA
52229,Fremont BART,37.5575128,-121.9758461,NA
55645,Fremont BART,37.5572046,-121.9756092,NA
54004,Fremont BART,37.5570749,-121.9754308,NA
51221,Fremont BART,37.557678,-121.9754964,NA
55899,38932 Fremont Blvd (Near Mowry Av),37.5494892,-121.9897368,NA
51669,Fremont Blvd & Adams Av,37.529767,-121.958721,NA
53744,Fremont Blvd & Adams Av,37.529941,-121.958556,NA
55229,Fremont Blvd & Alder Av (American Sr High School),37.5634241,-122.0169853,NA
53115,Fremont Blvd & Alder Av (American Sr High School),37.5622915,-122.0153149,NA
54114,Fremont Blvd & Beacon Av,37.5465579,-121.9847423,NA
56551,Fremont Blvd & Beacon Av,37.5469399,-121.9848242,NA
56616,Fremont Blvd & Bidwell Dr,37.5422665,-121.9763516,NA
52352,Fremont Blvd & Blacow Rd,37.5246695,-121.9575331,NA
55145,Fremont Blvd & Bonde Way,37.5589158,-122.0085535,NA
56003,Fremont Blvd & Carol Av,37.5275697,-121.9583711,NA
52959,Fremont Blvd & Centerville Jr High School,37.5557191,-122.0019141,NA
55011,Fremont Blvd & Central Av,37.5560942,-122.0031739,NA
55881,Fremont Blvd & Chapel Way,37.5347145,-121.9621235,NA
55952,Fremont Blvd & Country Dr,37.5510328,-121.9927698,NA
52730,Fremont Blvd & Crestwood St,37.5169125,-121.9542075,NA
57144,Fremont Blvd & Crestwood St,37.5170099,-121.9538404,NA
52272,Fremont Blvd & Darwin Dr,37.5744228,-122.039314,NA
55245,Fremont Blvd & Decoto Rd,37.5701837,-122.0314598,NA
52660,Fremont Blvd & Decoto Rd,37.5712554,-122.0328722,NA
54141,Fremont Blvd & Delaware Dr,37.5194508,-121.9552831,NA
54610,Fremont Blvd & Delaware Dr,37.5185567,-121.9553381,NA
51992,Fremont Blvd & Doane St,37.5152653,-121.9528075,NA
52790,Fremont Blvd & Doane St,37.5147191,-121.9528208,NA
56505,Fremont Blvd & Eggers Dr,37.5527435,-121.9966472,NA
58553,Fremont Blvd & Eggers Dr,37.5529468,-121.9965127,NA
53889,Fremont Blvd & Enea Ct,37.5764625,-122.0435,NA
53303,Fremont Blvd & Enea Ct,37.5756266,-122.0425189,NA
58801,Fremont Blvd & Ferry Ln,37.5720076,-122.0351203,NA
57244,Fremont Blvd & Ferry Ln,37.5724496,-122.0352921,NA
51751,Fremont Blvd & Gibraltar Dr,37.5643233,-122.0194633,NA
51108,Fremont Blvd & Gibraltar Dr,37.5645474,-122.0192472,NA
52353,Fremont Blvd & Grimmer Blvd,37.5359375,-121.964801,NA
56700,Fremont Blvd & London Com,37.5507387,-121.9928393,NA
55037,Fremont Blvd & Michael Av,37.5213821,-121.9564219,NA
52572,Fremont Blvd & Mission View Dr,37.5392454,-121.9702134,NA
52562,Fremont Blvd & Montrose Av,37.513249,-121.9516266,NA
56788,Fremont Blvd & Mowry Av,37.548003,-121.9875539,NA
57575,Fremont Blvd & Mowry Av,37.5483073,-121.9874146,NA
52112,Fremont Blvd & Nicolet Av,37.5656962,-122.0222248,NA
56625,Fremont Blvd & Nicolet Av,37.566684,-122.023561,NA
58559,Fremont Blvd & Norris Rd,37.5545247,-122.0001159,NA
55071,Fremont Blvd & Village Ter,37.554474,-121.9994853,NA
56445,Fremont Blvd & Papazian Way,37.5340162,-121.9614175,NA
56119,Fremont Blvd & Paseo Padre Pkwy,37.5755908,-122.0416318,NA
56755,Fremont Blvd & Paseo Padre Pkwy,37.5746954,-122.0406139,NA
55685,Fremont Blvd & Peralta Blvd,37.557744,-122.0062694,NA
55787,Fremont Blvd & Peralta Ct,37.5585447,-122.0074409,NA
52550,Fremont Blvd & Stevenson Blvd,37.5412429,-121.973679,NA
53566,Fremont Blvd & Stevenson Blvd,37.5401659,-121.9723929,NA
52600,Fremont Blvd & Sundale Dr,37.544786,-121.9813429,NA
51011,Fremont Blvd & Sundale Dr,37.5451225,-121.9812554,NA
58722,Fremont Blvd & Tamayo St,37.5677133,-122.0264327,NA
53563,Fremont Blvd & Tamayo St,37.5678371,-122.0258981,NA
56055,Fremont Blvd & Thornton Av,37.5612707,-122.0127111,NA
52212,Fremont Blvd & Washington Blvd,37.5317007,-121.9587753,NA
58733,Fremont Blvd & Washington Blvd,37.5323792,-121.9592245,NA
52575,Grimmer Blvd & Auto Mall Pkwy,37.5100627,-121.9632961,NA
59399,Grimmer Blvd & Blacow Rd,37.5220226,-121.9691491,NA
55105,Grimmer Blvd & Blacow Rd,37.5220367,-121.9688116,NA
56075,Grimmer Blvd & Carol Av,37.5268973,-121.9699454,NA
51143,Grimmer Blvd & Davis St,37.5336739,-121.9675681,NA
57944,Grimmer Blvd & Davis St,37.5336624,-121.9679525,NA
53022,Grimmer Blvd & Doane St,37.5126625,-121.9649235,NA
52990,Grimmer Blvd & Fremont Blvd,37.5360752,-121.9660026,NA
56157,Grimmer Blvd & Irvington Av,37.5318378,-121.9694426,NA
56171,Grimmer Blvd & Irvington Av,37.5323928,-121.9686032,NA
59890,Grimmer Blvd & Paseo Padre Pkwy,37.5406963,-121.961713,NA
51201,Grimmer Blvd & Seneca Park Av,37.5158509,-121.9671115,NA
51256,Grimmer Blvd & Valpey Park Av,37.519452,-121.9684557,NA
51993,Grimmer Blvd & Valpey Park Av,37.5196694,-121.9681786,NA
52120,Grimmer Blvd & Yellowstone Park Dr,37.5130821,-121.9655064,NA
57160,48501 Milmont Dr,37.4662955,-121.9238393,NA
51996,48641 Milmont Dr,37.4639488,-121.9226412,NA
57845,Milmont Dr & Kato Rd,37.4617249,-121.9222457,NA
56331,38576 Mission Blvd (Near Mowry Av),37.5710173,-121.9663164,NA
53099,Mission Blvd & Antelope Dr (S Grimmer Blvd),37.5071273,-121.9195817,NA
51577,Mission Blvd & Anza St,37.5310156,-121.9193448,NA
52218,Mission Blvd & Anza St,37.5302871,-121.9193724,NA
56467,Mission Blvd & Calle Amigo Dr,37.5630023,-121.9591026,NA
52320,Mission Blvd & Calle Amigo Dr,37.5625015,-121.9590236,NA
51780,Mission Blvd & Callery Ct,37.5472515,-121.9352086,NA
51844,Mission Blvd & Callery Ct,37.5470377,-121.9354069,NA
55733,Mission Blvd & Cedar St,37.5280353,-121.9186593,NA
53166,Mission Blvd & Cougar Dr,37.5132829,-121.9192406,NA
52003,Mission Blvd & Dalgo Rd,37.5541461,-121.9468437,NA
52243,Mission Blvd & Castro Ln,37.5502444,-121.9403535,NA
57260,Mission Blvd & Driscoll Rd,37.549381,-121.939409,NA
53230,Mission Blvd & Esparito Av,37.5515776,-121.9423849,NA
53228,Mission Blvd & Hunter Ln,37.5203262,-121.9180551,NA
54998,Mission Blvd & I-680 Fwy,37.5401759,-121.9239472,NA
56520,Mission Blvd & I-680 Fwy,37.5391057,-121.9236282,NA
52725,Mission Blvd & Las Palmas Av,37.5579061,-121.9528731,NA
52006,Mission Blvd & Las Palmas Av,37.558411,-121.9531974,NA
56530,Mission Blvd & Mackintosh St,37.5542454,-121.9464901,NA
55072,Mission Blvd & Mill Creek Rd,37.5375794,-121.9220473,NA
55277,Mission Blvd & Mohave Dr,37.4911544,-121.9275708,NA
56590,Mission Blvd & Nursery Av,37.5806877,-121.9907605,NA
54570,Mission Blvd & Nursery Av,37.5809968,-121.9907838,NA
53199,Mission Blvd & Ondina Dr,37.5512661,-121.9424226,NA
58799,Mission Blvd & Orchard Dr,37.57165,-121.9673759,NA
55338,Mission Blvd & Palm Av (Mission San Jose High),37.5451155,-121.9320921,NA
59558,Mission Blvd & Palm Av (Mission San Jose High),37.5454118,-121.9320563,NA
52009,Mission Blvd & Paseo Padre Pkwy,37.5008976,-121.9193615,NA
55073,Mission Blvd & Paseo Padre Pkwy,37.4999149,-121.9196467,NA
59800,Mission Blvd & Pine St,37.5257899,-121.9177038,NA
54580,Mission Blvd & Starr St,37.5377484,-121.92241,NA
53430,Mission Blvd & Stevenson Blvd,37.5612613,-121.9575016,NA
55079,Mission Blvd & Stevenson Blvd,37.5601366,-121.956488,NA
52780,Mission Blvd & Via San Dimas,37.542344,-121.926853,NA
53780,Mission Blvd & Via San Dimas,37.5421627,-121.9270123,NA
56603,Mission Blvd & Washington Blvd,37.5335178,-121.9201996,NA
53053,Mission Blvd & Washington Blvd,37.5347514,-121.9203029,NA
50766,Mowry Av & Argonaut Way,37.5456736,-121.9910247,NA
56609,Mowry Av & Glenview Dr,37.5385812,-121.9968213,NA
54520,Mowry Av & Logan Dr,37.5429315,-121.9932407,NA
52752,2557 Mowry Av,37.556013,-121.9825811,NA
57290,300 Mowry Av,37.5686334,-121.9706619,NA
53573,Mowry Av & Alpenrose Ct,37.5271778,-122.0056429,NA
57880,Mowry Av & Argonaut Way,37.5459612,-121.990312,NA
52844,Mowry Av & Blacow Rd,37.5370247,-121.9981111,NA
54760,Mowry Av & Bonner Av,37.5622738,-121.9789482,NA
57820,Mowry Av & Bonner Av,37.5625478,-121.9785906,NA
52203,Mowry Av & Cherry Ln,37.5675484,-121.9730804,NA
53328,Mowry Av & Cherry Ln,37.5673642,-121.9729278,NA
55780,Mowry Av & Farwell Dr,37.5341111,-122.0004808,NA
52577,Mowry Av & Farwell Dr,37.5343521,-121.9997937,NA
53030,Mowry Av & Lexington St,37.5495601,-121.9873694,NA
50504,Mowry Av & Fremont Blvd,37.5477739,-121.9888657,NA
55009,Mowry Av & Fremont Blvd,37.5481688,-121.9889804,NA
54530,Mowry Av & Guardino Dr,37.5660367,-121.9752707,NA
54590,Mowry Av & Guardino Dr,37.565924,-121.9760182,NA
54771,Mowry Av & Hastings St,37.5535577,-121.9841059,NA
50711,Mowry Av & Lexington St,37.5506035,-121.9869827,NA
53844,Mowry Av & Mission Blvd,37.5724189,-121.9686631,NA
58044,Mowry Av & Parkside Dr (Washington Hosp.Emer.Ent.),37.5587425,-121.9798624,NA
57360,Mowry Av & Parkside Dr,37.558869,-121.9802309,NA
55215,Mowry Av & Paseo Padre Pkwy,37.5544458,-121.9838492,NA
52206,Mowry Av & Paseo Padre Pkwy,37.5555459,-121.9824935,NA
55097,Mowry Av & State St,37.5512706,-121.9859773,NA
57830,Ardenwood Blvd & Fwy 84,37.5518448,-122.0523996,NA
52209,37395 Niles Blvd,37.5771351,-121.9801873,NA
57860,Niles Blvd & E St,37.5780478,-121.9841569,NA
57390,Niles Blvd & E St,37.5781534,-121.9840385,NA
58670,Niles Blvd & El Portal Av,37.5817696,-122.0002779,NA
57561,Niles Blvd & El Portal Av,37.5814989,-122.0002543,NA
56701,Niles Blvd & F St,37.5777303,-121.9827531,NA
58144,Niles Blvd & H St,37.5771753,-121.9796072,NA
57562,Niles Blvd & Hillview Dr,37.5791892,-121.9884867,NA
56712,Niles Blvd & Hillview Dr,37.5788073,-121.9874639,NA
53360,Niles Blvd & J St,37.5763082,-121.9765855,NA
52261,Niles Blvd & J St,37.5764701,-121.9765581,NA
56723,Niles Blvd & Nursery Av,37.5795068,-121.9904128,NA
54310,Niles Blvd & Nursery Av,37.5797792,-121.9907134,NA
50780,Niles Blvd & Torrano Com (East Jctn),37.580399,-121.9939264,NA
58244,Niles Blvd & Vallejo St,37.5760195,-121.9723346,NA
56619,Niles Blvd & Vallejo St,37.5756791,-121.9725608,NA
57850,Niles Blvd & F St,37.5778384,-121.9827298,NA
55526,Ohlone College-Key C,37.5283498,-121.9133859,NA
50788,Ohlone College-Key D,37.530161,-121.91129,NA
57930,Page Av & Kato Rd,37.468139,-121.9269916,NA
57960,Page Av & Milmont St,37.4687207,-121.9253358,NA
56070,Paseo Padre Pkwy & Blackstone Way,37.5729374,-122.0429465,NA
55498,Paseo Padre Pkwy & Blackstone Way,37.5737013,-122.0420078,NA
58853,Paseo Padre Pkwy & Bowlingreen Com,37.5771523,-122.0394057,NA
56629,Paseo Padre Pkwy & Chaucer Dr,37.5810659,-122.0329984,NA
57560,Paseo Padre Pkwy & Country Dr,37.5564211,-121.9869637,NA
55179,Paseo Padre Pkwy & Country Dr,37.5570326,-121.9875914,NA
50890,Paseo Padre Pkwy & Darwin Dr,37.5800072,-122.0313139,NA
59730,Paseo Padre Pkwy & Darwin Dr,37.5802337,-122.031215,NA
53100,Paseo Padre Pkwy & Deep Creek Rd,37.567947,-122.051551,NA
51514,Paseo Padre Pkwy & Deep Creek Rd,37.567603,-122.0528436,NA
59780,Paseo Padre Pkwy & Eggers Dr,37.558339,-121.9908141,NA
52269,Paseo Padre Pkwy & Ethel St (Near Eggers Dr),37.5588757,-121.9912666,NA
51766,Paseo Padre Pkwy & Fremont Blvd,37.5755988,-122.0405722,NA
57551,Paseo Padre Pkwy & Fremont Blvd,37.5746428,-122.0416354,NA
54650,Paseo Padre Pkwy & Langhorn Dr,37.5809482,-122.0368427,NA
59958,Paseo Padre Pkwy & Milton St,37.5771049,-122.0397878,NA
56080,Paseo Padre Pkwy & Mission View Dr,37.5454043,-121.9657109,NA
50244,Paseo Padre Pkwy & Mission View Dr,37.5447839,-121.9651766,NA
56631,Paseo Padre Pkwy & Mowry Av,37.5551864,-121.9840069,NA
54243,Paseo Padre Pkwy & Peralta Blvd,37.5604804,-121.9942113,NA
56850,Paseo Padre Pkwy & Peralta Blvd,37.5605893,-121.994834,NA
56370,Paseo Padre Pkwy & Rockett Dr,37.5420668,-121.9614909,NA
56970,Paseo Padre Pkwy & Sailway Dr,37.5470936,-121.9689077,NA
57120,Paseo Padre Pkwy & Sailway Dr,37.5476162,-121.9692059,NA
55197,Paseo Padre Pkwy & Senior Center,37.545995,-121.9666044,NA
55207,Paseo Padre Pkwy & Sequoia Rd,37.5633694,-122.002589,NA
57230,Paseo Padre Pkwy & Sequoia Rd,37.56369,-122.0021955,NA
51189,Paseo Padre Pkwy & Siward Dr,37.569498,-122.048621,NA
52275,Paseo Padre Pkwy & Siward Dr,37.5693654,-122.0484428,NA
53611,Paseo Padre Pkwy & Tupelo St,37.5623216,-122.0615421,NA
54980,Paseo Padre Pkwy & Walnut Av,37.551399,-121.976543,NA
50944,Paseo Padre Pkwy & Walnut Av,37.5510569,-121.9766001,NA
55271,Paseo Padre Pkwy & Warwick Rd,37.5779335,-122.0287806,NA
51644,Paseo Padre Pkwy & Warwick Rd,37.5787395,-122.0292348,NA
57130,Paseo Padre Pkwy & Whitehead Ln,37.5814151,-122.0331622,NA
58245,S Grimmer Blvd & Enterprise St,37.5048172,-121.9588176,NA
50787,S Grimmer Blvd & Fremont Blvd,37.502318,-121.9497412,NA
50230,S Grimmer Blvd & Fremont Blvd,37.502587,-121.949797,NA
51245,S Grimmer Blvd & Ishi Dr,37.5066135,-121.9238053,NA
58534,S Grimmer Blvd & Ishi Dr,37.5064644,-121.9236195,NA
58645,S Grimmer Blvd & Parkmeadow Dr,37.5067778,-121.9324629,NA
52296,S Grimmer Blvd & Parkmeadow Dr,37.5068536,-121.9327881,NA
51250,S Grimmer Blvd & Paseo Padre Pkwy,37.5074383,-121.9287929,NA
51560,S Grimmer Blvd & Paseo Padre Pkwy,37.5072194,-121.9277858,NA
52350,S Grimmer Blvd & Technology Dr,37.5050497,-121.9586263,NA
51280,4445 Stevenson Blvd,37.5353769,-121.9776974,NA
56639,Stevenson Blvd & Besco Dr,37.5335969,-121.9792705,NA
53151,Stevenson Blvd & Blacow Rd,37.5278433,-121.9836357,NA
53350,Stevenson Blvd & Blacow Rd,37.5289482,-121.9823568,NA
53305,Stevenson Blvd & Cedar Blvd,37.5191838,-121.9903517,NA
52766,Stevenson Blvd & Cedar Blvd,37.5190662,-121.9908807,NA
56691,Stevenson Blvd & Davis St,37.5367165,-121.9766111,NA
56692,Stevenson Blvd & Farwell Dr,37.5254266,-121.9856129,NA
57759,Stevenson Blvd & Fremont Blvd,37.5396344,-121.9736823,NA
56552,Stevenson Blvd & Fremont Blvd,37.5392083,-121.9744904,NA
51787,Stevenson Blvd & Fremont Main Library,37.550775,-121.9720375,NA
50202,Stevenson Blvd & Leslie St,37.5437146,-121.9731382,NA
52560,Stevenson Blvd & Liberty St,37.5467672,-121.9721683,NA
56515,Stevenson Blvd & Omar St,37.5263582,-121.9844922,NA
55108,Stevenson Blvd & Stevenson Com,37.5438637,-121.9727822,NA
53622,Stevenson Blvd & Sundale Dr,37.5295171,-121.9822844,NA
55307,Thornton Av & Allen Ct,37.5597317,-122.0126266,NA
53560,Thornton Av & Balboa Way,37.5529492,-122.0178966,NA
56693,Thornton Av & Cabrillo Dr,37.5524068,-122.0179759,NA
56020,Thornton Av & Contra Costa Av,37.5551305,-122.0157419,NA
56516,Thornton Av & Dondero Way,37.5493381,-122.0204729,NA
55317,Thornton Av & Dusterberry Way (Thornton Jr High),37.5563694,-122.0147862,NA
56066,Thornton Av & Dusterberry Way (Thornton Jr High),37.5563498,-122.0151459,NA
52044,Thornton Av & Fremont Blvd,37.5611043,-122.0112467,NA
53423,Thornton Av & Moraine St,37.5627374,-122.0096011,NA
56030,Thornton Av & Moraine St,37.5627459,-122.0091689,NA
52661,Thornton Av & Towers Way,37.5500932,-122.0202226,NA
52289,Walnut Av & Fremont Blvd,37.5464364,-121.9822316,NA
51788,Walnut Av & Fremont Blvd,37.5463504,-121.9819482,NA
53699,Walnut Av & Gallaudet Dr,37.561063,-121.9681346,NA
53911,Walnut Av & Gallaudet Dr,37.560969,-121.9688122,NA
53766,Walnut Av & Godfrey Pl,37.5633543,-121.9644419,NA
56090,Walnut Av & Godfrey Pl,37.5635863,-121.9644893,NA
53787,Walnut Av & Guardino Dr,37.5591046,-121.9717646,NA
57211,Walnut Av & Guardino Dr,37.5590144,-121.971411,NA
52644,Walnut Av & Liberty St,37.5487581,-121.9801219,NA
53389,Walnut Av & Mission Blvd,37.565269,-121.9616891,NA
52663,Walnut Av & Overacker Av,37.5649131,-121.9626729,NA
55143,Walnut Av & Paseo Padre Pkwy,37.552732,-121.9770345,NA
52788,Walnut Av & Paseo Padre Pkwy,37.5527254,-121.9773969,NA
52669,Warm Springs Blvd & Camphor Av,37.4743897,-121.9208011,NA
55371,Warm Springs Blvd & Camphor Av,37.4747039,-121.9206452,NA
53153,Warm Springs Blvd & E Warren Av,37.4868269,-121.927601,NA
53503,Warm Springs Blvd & E Warren Av,37.4865869,-121.9277849,NA
56991,Warm Springs Blvd & Gable Dr (Near Hammond Av),37.4778938,-121.9228128,NA
55626,Warm Springs Blvd & Gable Dr (Near Hammond Av),37.4779536,-121.9225363,NA
56992,Warm Springs Blvd & Hackamore Ln(Mission Falls Ln),37.4853057,-121.9267172,NA
52944,Warm Springs Blvd & Kato Rd,37.4628778,-121.91417,NA
59700,Warm Springs Blvd & Lippert Av,37.4815625,-121.924588,NA
53966,Warm Springs Blvd & Lippert Av,37.4813871,-121.9248242,NA
53505,Warm Springs Blvd & Mayten Way,37.4706005,-121.9182778,NA
56626,Warm Springs Blvd & Mission Blvd,37.4892005,-121.9288884,NA
55953,Warm Springs Blvd & Mission Blvd,37.4890664,-121.9291875,NA
58968,Warm Springs Blvd & Starlite Way,37.4720425,-121.9194526,NA
55160,Warm Springs Blvd & Starlite Way,37.4732745,-121.9198094,NA
53044,Warm Springs Blvd & Tonopah Dr,37.4669189,-121.916474,NA
57322,Warm Springs Blvd & Tonopah Dr,37.4682555,-121.9169094,NA
52991,Warm Springs Blvd & Whitney Pl,37.4704072,-121.9184796,NA
59607,Washington Blvd & Bruce Dr,37.5335753,-121.9520426,NA
59617,Washington Blvd & Bruce Dr,37.5333201,-121.9519921,NA
56145,Washington Blvd & Bryant St,37.5329507,-121.9230125,NA
59489,Washington Blvd & Castillejo Rd,37.5308727,-121.9403464,NA
56151,Washington Blvd & Ellsworth St,37.5332605,-121.9220852,NA
55372,Washington Blvd & Gallegos Av,37.5323597,-121.9296247,NA
56150,Washington Blvd & Gallegos Av,37.5321574,-121.9294515,NA
55218,Washington Blvd & Jerome Av,37.5327819,-121.9259167,NA
50158,Washington Blvd & Jerome Av,37.5325326,-121.9264158,NA
56180,Washington Blvd & Luzon Dr,37.5310596,-121.9380846,NA
50181,Washington Blvd & Meredith Dr,37.5317025,-121.94469,NA
56245,Washington Blvd & Olive Av,37.5332658,-121.94965,NA
56993,Washington Blvd & Olive Av,37.533633,-121.9501019,NA
53144,Washington Blvd & Palm Av,37.5319767,-121.9327054,NA
56280,Washington Blvd & Palm Av,37.5318426,-121.9322621,NA
53788,Washington Blvd & Starr St,37.5330376,-121.9238625,NA
55243,Washington Blvd & Weigand Ct,37.5313864,-121.9371902,NA
55799,Fremont Blvd & Baine Av,37.5587159,-122.0077637,NA
55686,Fremont Blvd & Bidwell Dr,37.5429021,-121.9764218,NA
55156,Mowry Av & Alpenrose Dr (Swiss Park),37.5262871,-122.0068693,NA
50722,Walnut Av & Walnut Circle,37.5617455,-121.9659383,NA
56160,Curie St & Boscell Av,37.5008169,-121.972144,NA
56380,Curie St & S Pacific Commons Blvd,37.5023363,-121.9703386,NA
56855,Christy St & Curie St,37.5041582,-121.9692058,NA
57576,Mission Blvd & King Av,37.5885101,-122.0000658,NA
53440,Mission Blvd & King Av,37.5878369,-121.9997722,NA
56252,Mission Blvd & Niles Blvd,37.5760389,-121.9713445,NA
56155,Walnut Av & Liberty St,37.5491561,-121.9801661,NA
55190,Mission Blvd & Niles Canyon Rd,37.57688,-121.9717698,NA
55260,Ardenwood Blvd & Commerce Dr,37.555967,-122.062467,NA
51372,Niles Blvd & Rancho Arroyo Pkwy,37.5802307,-121.9942706,NA
56525,Mowry Av & Sutter Dr,37.538522,-121.9964496,NA
57611,Mowry Av & Logan Dr,37.5428681,-121.9928614,NA
55120,Decoto Rd & Brookmill Dr,37.5747341,-122.0291025,NA
56250,Decoto Rd & Brookmill Dr,37.5747708,-122.0286042,NA
55290,Boscell Av & Braun Dr,37.5020459,-121.9749084,NA
52993,Washington Blvd & Meredith Dr,37.5318883,-121.9445963,NA
56260,Mission Blvd & Walnut Av,37.5658398,-121.9616169,NA
51397,Ardenwood P & R Lot,37.5513347,-122.0548357,NA
57756,24237 2nd St (Rear Of Hayward High School),37.6696125,-122.0709547,NA
56350,24514 2nd St,37.6686545,-122.0680694,NA
56360,24535 2nd St,37.6685298,-122.0676912,NA
57622,2nd St & Acacia Dr,37.6709694,-122.0740794,NA
54242,2nd St & Acacia Dr,37.6711653,-122.0741933,NA
55089,2nd St & B St,37.6748475,-122.0788861,NA
56950,2nd St & Canyon View Ct,37.6676693,-122.0612648,NA
52524,2nd St & D St,37.6733115,-122.077495,NA
59788,2nd St & D St,37.6732148,-122.0777009,NA
54450,2nd St & E St,37.6718109,-122.0756024,NA
55397,2nd St & Patricia Ct,37.6688454,-122.0654357,NA
56960,2nd St & Sylvan Glen Ct,37.6686875,-122.0657235,NA
50733,2nd St & Walpert St (Rear Of Hayward High School),37.6701114,-122.0722715,NA
54355,2nd St & Walpert St,37.6702147,-122.0721659,NA
59560,A St & Alice St,37.670087,-122.0915036,NA
56526,A St & Filbert St,37.6682547,-122.0960622,NA
59665,A St & Filbert St,37.6687229,-122.0956958,NA
50580,A St & Flagg St,37.6698858,-122.0928562,NA
52996,A St & Grand St,37.6707519,-122.0901567,NA
54766,W A St & Happyland Av,37.6662283,-122.1054426,NA
53644,A St & Hathaway Av,37.6666335,-122.1032221,NA
50130,A St & Myrtle St,37.669247,-122.0935567,NA
50850,A St & Santa Clara St,37.6662405,-122.1026863,NA
55189,24607 Amador St,37.655394,-122.0912541,NA
53002,24607 Amador St,37.6551987,-122.0913302,NA
52232,24660 Amador St,37.6541257,-122.0904866,NA
57633,Amador St & Elmhurst St,37.6566636,-122.0930239,NA
53515,Amador St & Elmhurst St,37.6565134,-122.0930789,NA
59005,Amador St & W Jackson St,37.6535465,-122.090327,NA
53433,Amador St & W Winton Av,37.6585106,-122.0942575,NA
50799,Amador St & W Winton Av,37.6582345,-122.0944279,NA
50225,B St & 2nd St,37.6750438,-122.0798389,NA
55289,B St & 3rd St,37.6763561,-122.0779445,NA
53009,B St & 3rd St,37.6765279,-122.0774157,NA
59878,B St & 4th St,37.6779135,-122.0754637,NA
51534,B St & 4th St,37.6777449,-122.0759945,NA
58230,B St & 5th St,37.6784693,-122.0741499,NA
58920,B St & 5th St,37.6786492,-122.0740202,NA
56440,B St & 6th St,37.679264,-122.0722854,NA
59044,B St & 6th St,37.6791884,-122.0727893,NA
50776,B St & 7th St,37.680189,-122.0700994,NA
50303,B St & 7th St,37.6800752,-122.0706724,NA
51513,B St & Foothill Blvd,37.6738566,-122.0813572,NA
52557,B St & Linden St,37.6815029,-122.067981,NA
53116,B St & Linden St,37.6815683,-122.0675861,NA
53119,B St & Madrone St,37.6822208,-122.0666836,NA
53351,B St & Main St,37.6726499,-122.0831605,NA
55325,B St & Mission Blvd,37.6719497,-122.0843931,NA
53577,B St & Pearl Av,37.6833546,-122.0647529,NA
55328,B St & Vermont St,37.6830057,-122.0650545,NA
56561,C St & Foothill Blvd (1st St),37.6732929,-122.0795364,NA
57811,C St & Main St,37.672162,-122.0810373,NA
55050,C St & Mission Blvd,37.6709177,-122.0830599,NA
58960,21121 Cabot Blvd (Railroad Crossing),37.6453013,-122.1376524,NA
51568,21270 Cabot Blvd,37.6428214,-122.1371302,NA
56987,21270 Cabot Blvd,37.642476,-122.1371913,NA
51645,Cabot Blvd & Bernhardt St,37.6394299,-122.1338173,NA
59144,Cabot Blvd & Bernhardt St,37.6399865,-122.1340926,NA
56798,Cabot Blvd & Davis Av,37.6464117,-122.1374355,NA
59787,Cabot Blvd & Kidder St,37.6411116,-122.1353421,NA
51680,Cabot Blvd & Kidder St,37.640424,-122.1349384,NA
57450,Cabot Blvd & Radley Ct,37.6483885,-122.1375361,NA
50767,Cabot Blvd & Radley Ct,37.6479898,-122.13774,NA
50710,Cabot Blvd & W Winton Av,37.6520267,-122.138781,NA
59244,Campus Dr & Highland Blvd,37.6621524,-122.0581071,NA
55822,Campus Dr & Highland Blvd,37.6621663,-122.0579078,NA
55230,Campus Dr & Oakes Dr,37.6652725,-122.0558905,NA
51260,Campus Dr & Oakes Dr,37.665228,-122.056076,NA
51710,City Center Dr & Centennial Hall,37.6795213,-122.0816746,NA
55702,City Center Dr & Centennial Hall,37.679526,-122.081914,NA
59644,City Center Dr & Foothill Blvd,37.6804457,-122.0848054,NA
55943,City Center Dr & Foothill Blvd (N Jctn),37.6803401,-122.0846222,NA
58450,1797 D St (Next To Sulpher Creek Nature Center),37.6778636,-122.0648716,NA
56016,7597 D St (Near Sulpher Creek Nature Center),37.6779639,-122.0650865,NA
55703,D St & 2nd St,37.6732634,-122.077301,NA
50938,D St & 2nd St,37.6733655,-122.0769312,NA
50140,D St & 5th St,37.6756423,-122.0723608,NA
53306,D St & 5th St,37.6757236,-122.0725024,NA
55706,D St & 6th St,37.6763904,-122.0705345,NA
52358,D St & 7th St,37.6770381,-122.0682932,NA
53309,D St & 7th St,37.6771219,-122.0684216,NA
50335,D St & Atherton St,37.6687845,-122.0842272,NA
55360,D St & Grand St,37.6664829,-122.0876116,NA
56125,D St & Kings Ct,37.6762602,-122.070573,NA
51722,D St & Meek Av,37.6639137,-122.087796,NA
55390,D St & Meek Av,37.6644717,-122.0875108,NA
55421,D St & Valley St,37.6744675,-122.0754018,NA
53316,D St & Valley St,37.6748768,-122.0749504,NA
55801,Depot Rd & Clawiter Rd,37.6385559,-122.1193715,NA
56126,Depot Rd & Connecticut St,37.638245,-122.129108,NA
50340,Depot Rd & Connecticut St,37.63809,-122.129461,NA
50810,Depot Rd & Foley St,37.638113,-122.1320765,NA
55709,Depot Rd & Industrial Blvd,37.6387247,-122.1182452,NA
51450,Depot Rd & Viking St,37.6384501,-122.1252714,NA
51810,Depot Rd & Viking St,37.638297,-122.1244318,NA
58859,Dyer St & Whipple Rd,37.6044617,-122.0689226,NA
55716,Evergreen St & Eldridge Av,37.6469262,-122.0898952,NA
53319,Evergreen St & Regal Av,37.6448663,-122.086761,NA
55719,Evergreen St & Regal Av,37.6448934,-122.0871304,NA
55726,Evergreen St & Underwood Av,37.6445519,-122.0838527,NA
54460,Evergreen St & Underwood Av,37.6444343,-122.0839121,NA
55620,Evergreen St & W Harder Rd,37.6470761,-122.0897873,NA
52385,Folsom Av & Harvey Av,37.6249206,-122.0698021,NA
58510,Folsom Av & Harvey Av,37.6248321,-122.0696011,NA
55812,Folsom Av & Tampa Av,37.6243343,-122.0747856,NA
56235,Folsom Av & Tampa Av,37.6244713,-122.0749911,NA
56236,Folsom Av & Thackeray Av,37.6244526,-122.0721932,NA
52412,Folsom Av & Thackeray Av,37.6246101,-122.0720047,NA
54490,Foothill Blvd & A St,37.675626,-122.0820086,NA
51210,Foothill Blvd & B St,37.674349,-122.080967,NA
59450,Foothill Blvd & City Center Dr (South Jctn),37.6768955,-122.083225,NA
56290,Foothill Blvd & City Center Dr (South Jctn),37.6771123,-122.0829639,NA
53362,Foothill Blvd & Grove Way,37.683619,-122.0898621,NA
56535,Foothill Blvd & Grove Way,37.6833066,-122.0899868,NA
58050,Gading Rd & Dumont Av,37.6444016,-122.0811063,NA
55630,Gading Rd & Dumont Av,37.6445442,-122.0813757,NA
55729,Gading Rd & W Harder Rd,37.6482269,-122.0818894,NA
57440,Gomer St & Patrick Av,37.6360021,-122.0799487,NA
50310,Gomer St & Patrick Av,37.6358768,-122.0797613,NA
55731,Gomer St & Underwood Av,37.6358513,-122.0833416,NA
58440,Gomer St & Underwood Av,37.6357216,-122.0830663,NA
52423,Grand St & Dean St,37.6656335,-122.0861952,NA
56760,Grand St & Dean St,37.6655737,-122.0864146,NA
55750,East Loop Rd & CSU East Bay Recreation & Wellness,37.6540338,-122.0535848,NA
55736,Harris Rd & Huntwood Av,37.6368886,-122.0671553,NA
53369,Harris Rd & Manon Av,37.6360639,-122.0685831,NA
55532,Hayward BART,37.6702385,-122.0871805,NA
51588,Hayward BART,37.6701024,-122.0870871,NA
50555,Hayward BART,37.6698918,-122.0869502,NA
55500,Hayward BART,37.6697442,-122.0867738,NA
55911,Hayward BART,37.6696272,-122.0866076,NA
55665,Hayward BART,37.6692842,-122.0860985,NA
55662,Hayward BART,37.6698326,-122.0866745,NA
50511,Hayward BART,37.6697177,-122.0865005,NA
55055,Hayward BART,37.6695889,-122.0863137,NA
55667,Hayward BART,37.6695042,-122.086192,NA
55255,Hayward BART,37.6693809,-122.0860302,NA
54646,Hesperian Blvd & Arf Av (Mt. Eden Sr High School),37.6241578,-122.0927516,NA
52588,Hesperian Blvd & Bartlett Av,37.6683884,-122.1200303,NA
55920,Hesperian Blvd & Bolero Av,37.6291894,-122.0958311,NA
56166,Hesperian Blvd & Catalpa Way,37.6202149,-122.0899725,NA
54511,Hesperian Blvd & Depot Rd,37.639161,-122.101921,NA
57699,Hesperian Blvd & Industrial Pkwy,37.6177009,-122.0884461,NA
54664,Hesperian Blvd & Longwood Av,37.6582472,-122.1132856,NA
54949,Hesperian Blvd & Middle Ln,37.6501403,-122.1086915,NA
55823,Hesperian Blvd & Oliver Dr,37.6265953,-122.094246,NA
57550,Hesperian Blvd & Oliver Dr,37.6268153,-122.0940158,NA
53055,Hesperian Blvd & Panama St,37.6243483,-122.0925164,NA
57552,Hesperian Blvd & Skywest Dr,37.6579995,-122.1136139,NA
50522,Hesperian Blvd & Sleepy Hollow Av,37.6344101,-122.0986712,NA
57822,Hesperian Blvd & Sleepy Hollow Av,37.6340454,-122.0988002,NA
55756,Hesperian Blvd & Southland Dr,37.6504401,-122.1085103,NA
57734,Hesperian Blvd & Sueirro St,37.6622488,-122.1157483,NA
59766,Hesperian Blvd & Sueirro St,37.662011,-122.1160969,NA
55122,Hesperian Blvd & W A St,37.6645458,-122.1171701,NA
50900,Hesperian Blvd & W A St,37.664928,-122.117801,NA
55422,Hesperian Blvd & W Tennyson Rd,37.6304265,-122.09658399999999,NA
54055,Hesperian Blvd & W Winton Av,37.6524724,-122.1100889,NA
52332,Hesperian Blvd & West St,37.6483323,-122.1072176,NA
55739,Huntwood Av & Celia St,37.6303488,-122.0624351,NA
55791,Huntwood Av & Celia St,37.6304212,-122.0622087,NA
51610,Huntwood Av & Crocker Av,37.6170821,-122.0548594,NA
51910,Huntwood Av & Crocker Av,37.6174217,-122.0546936,NA
55982,Huntwood Av & Folsom Av,37.62643,-122.0606143,NA
51733,Huntwood Av & Folsom Av,37.6268002,-122.0605335,NA
52510,Huntwood Av & Harris Rd,37.6363991,-122.0669405,NA
51440,Huntwood Av & Industrial Pkwy,37.6212319,-122.0564861,NA
55792,Huntwood Av & New England Village Dr,37.6236304,-122.0593123,NA
57781,Huntwood Av & Olympic Av,37.6239442,-122.0592123,NA
59120,Huntwood Av & Salmon Way,37.609719,-122.054978,NA
59230,Huntwood Av & Salmon Way,37.6103104,-122.0546976,NA
53510,Huntwood Av & San Luis Obispo Av,37.607573,-122.054931,NA
55793,Huntwood Av & San Luis Obispo Av,37.6083973,-122.0547267,NA
53392,Huntwood Av & Sandoval Way,37.621031,-122.055877,NA
54556,Huntwood Av & W Tennyson Rd,37.6332122,-122.0649167,NA
59510,Huntwood Av & Zephyr Av,37.6111069,-122.0549412,NA
55796,Huntwood Av & Zephyr Av,37.6119793,-122.0546951,NA
59767,25800 Industrial Blvd,37.6346201,-122.1123906,NA
53396,25861 Industrial Blvd,37.6345806,-122.1126601,NA
51878,Industrial Blvd & Depot Rd,37.6378358,-122.1165776,NA
52860,Industrial Blvd & Fwy Entrance,37.6334113,-122.110987,NA
52895,Industrial Pkwy & Huntwood Av,37.6213606,-122.0575995,NA
52878,Industrial Pkwy & Industrial Pkwy Sw,37.6180173,-122.0623771,NA
52945,Industrial Pkwy & Ruus Rd,37.618205,-122.062674,NA
51988,Industrial Pkwy & Stratford Rd,37.6173755,-122.0694223,NA
56457,20201 Mack St (Opp. Ac Transit Training Center),37.654799,-122.133991,NA
56321,20234 Mack St (AC Transit Training Center),37.6547644,-122.1338375,NA
57782,20303 Mack St,37.654225,-122.132188,NA
51776,Mack St & Div 6 Yard,37.6543596,-122.1320744,NA
53034,Mack St & Sabre St,37.6563407,-122.1338389,NA
51310,Mack St & Sabre St,37.6564202,-122.1340022,NA
55445,Mack St & W Winton Av,37.653297,-122.1308065,NA
50870,Mack St & W Winton Av,37.6531473,-122.1309835,NA
55930,Manon Av & Harris Rd,37.6361693,-122.0691511,NA
55960,Manon Av & Schafer Rd,37.6409743,-122.0737957,NA
55907,Manon Av & Schafer Rd,37.6408226,-122.0739381,NA
57783,Manon Av & Shepherd Av,37.6382211,-122.0715125,NA
55983,Manon Av & Shepherd Av,37.6383837,-122.071863,NA
56750,Meek Av & Jackson St,37.6643333,-122.0835746,NA
58750,26395 Mission Blvd,37.6483265,-122.0649203,NA
53352,Mission Blvd & Alquire Pkwy,37.6300971,-122.0471706,NA
55690,Mission Blvd & Arrowhead Way,37.6250888,-122.0418397,NA
56353,Mission Blvd & Arrowhead Way,37.6258183,-122.0423225,NA
59220,Mission Blvd & Berry Av,37.6573365,-122.0719227,NA
57786,Mission Blvd & Blanche St,37.615126,-122.0300047,NA
57553,Mission Blvd & Blanche St,37.6142799,-122.02949,NA
59330,Mission Blvd & Calhoun St,37.6422743,-122.0597489,NA
53359,Mission Blvd & Fairway St,37.6226097,-122.0385814,NA
52776,Mission Blvd & Fairway St,37.621856,-122.0381557,NA
56959,Mission Blvd & Garin Av,37.6275098,-122.0442443,NA
53200,Mission Blvd & Grace St,37.6749875,-122.0872452,NA
56345,Mission Blvd & Grace St,37.6749088,-122.0874485,NA
59598,Mission Blvd & Gresel St,37.6183071,-122.0340885,NA
58760,Mission Blvd & Hancock St,37.6388797,-122.057262,NA
59009,Mission Blvd & Harder Rd,37.6517715,-122.0672807,NA
53443,Mission Blvd & Highland Blvd,37.6639475,-122.0766588,NA
52188,Mission Blvd & Jackson St,37.66824,-122.080609,NA
51799,Mission Blvd & Jefferson St,37.6425117,-122.0602967,NA
56536,Mission Blvd & Pinedale Ct,37.6655639,-122.0783488,NA
54994,Mission Blvd & Sorenson Rd,37.6461244,-122.0631309,NA
56559,Mission Blvd & Sorenson Rd,37.6467324,-122.0632702,NA
52711,Mission Blvd & Sunset Blvd,37.6778163,-122.090728,NA
56562,Mission Blvd & Sunset Blvd,37.6776899,-122.0908812,NA
52521,Mission Blvd & Sycamore Av,37.6629075,-122.0761866,NA
53045,Mission Blvd & Tennyson Rd,37.6369255,-122.0552617,NA
58001,Mission Blvd & Tennyson Rd,37.6368464,-122.0546629,NA
56743,Mission Blvd & Valle Vista Av,37.6333635,-122.0513566,NA
59943,Mission Blvd & Valle Vista Av,37.633872,-122.0515101,NA
59569,Patrick Av & Roosevelt Av,37.6337677,-122.0792588,NA
50120,Patrick Av & Roosevelt Av,37.6336559,-122.0795229,NA
53532,Patrick Av & W Tennyson Rd,37.6317484,-122.0793221,NA
53645,1310 Ruus Ln (Near Ruus Rd),37.621171,-122.0650694,NA
58789,Ruus Ln & Ruus Rd,37.6213203,-122.0645426,NA
55927,Ruus Ln & Stratford Rd (Georgian Manor West Gate),37.6207343,-122.0697817,NA
53680,Ruus Ln & Stratford Rd (Opp.Georgian Manor W.Gate),37.6206138,-122.0696141,NA
55937,Ruus Rd & Folsom Av,37.6250887,-122.0658519,NA
53820,Ruus Rd & Thiel Rd,37.6241276,-122.0652681,NA
51070,Ruus Rd & Thiel Rd,37.624347,-122.0655323,NA
53470,1809 Sabre St,37.6566125,-122.1317489,NA
52869,Sabre St & Corsair Blvd,37.6563375,-122.125326,NA
55971,Sabre St & Corsair Blvd,37.6561773,-122.1252563,NA
57055,Sabre St & Div 6 Gate,37.6564861,-122.1300293,NA
57732,Sabre St & Div 6 Gate,37.6566423,-122.1298559,NA
53450,Santa Clara St & Ocie Way,37.6591636,-122.1003297,NA
56470,Santa Clara St & Ocie Way,37.6592565,-122.1007234,NA
58112,Santa Clara St & Redbud Ln,37.6622699,-122.101989,NA
51080,Santa Clara St & Redbud Ln,37.6624606,-122.1022064,NA
51410,Santa Clara St & Santa Clara Way,37.6655824,-122.1022922,NA
59660,Santa Clara St & W A St,37.6661163,-122.1034162,NA
55670,Schafer Rd & Gading Rd (Glassbrook School),37.640932,-122.0809063,NA
59981,Schafer Rd & Gading Rd (Glassbrook School),37.6408171,-122.080719,NA
53595,Schafer Rd & Sunvale Ct,37.640992,-122.077089,NA
59982,Schafer Rd & Tyrrell Av,37.6408695,-122.076775,NA
54356,Silva Av & Jackson St,37.6643036,-122.0825987,NA
57340,Silva Av & Leighton St,37.662613,-122.0814875,NA
50210,Silva Av & Thomas Av,37.6620705,-122.081211,NA
55116,South Hayward BART,37.6346957,-122.0569386,NA
55404,South Hayward BART,37.6345559,-122.056834,NA
56677,South Hayward BART,37.6343891,-122.0567046,NA
52345,South Hayward BART,37.6347622,-122.0568088,NA
57400,South Hayward BART,37.634624,-122.0566969,NA
54433,Southland Dr & California Bank (Southland Mall),37.6518748,-122.1050592,NA
59965,Southland Dr & California Bank  (Southland Mall),37.6520188,-122.1052571,NA
53635,Southland Dr & La Playa Dr,37.654179,-122.1048543,NA
54215,Stratford Rd & Cantebury Ln,37.6195882,-122.0701518,NA
50320,Stratford Rd & Pacheco Way,37.6180611,-122.0699438,NA
50223,Stratford Rd & Welford Ln,37.6188626,-122.0702052,NA
51020,Sycamore Av & Silva Av,37.6614846,-122.0804729,NA
51030,Tampa Av & Sumatra St,37.6278631,-122.0755951,NA
54651,Tampa Av & Sumatra St,37.627484,-122.0754256,NA
57866,Tampa Av & W Tennyson Rd,37.6307885,-122.0758866,NA
59986,Tennyson Rd & Leidig Ct,37.6344835,-122.0632227,NA
53991,Tennyson Rd & Oharran Dr,37.6351544,-122.0606219,NA
54988,Tennyson Rd & Whitman St,37.6353282,-122.0611997,NA
54652,Underwood Av & Cascade St,37.641636,-122.0835666,NA
53992,Underwood Av & Cascade St,37.6413193,-122.0834224,NA
53996,Underwood Av & Inglewood St,37.6396936,-122.0835632,NA
53935,Underwood Av & Inglewood St,37.6394373,-122.0834183,NA
50887,Hesperian Blvd & Eden Park Pl,37.6130255,-122.0855345,NA
58874,W A St & Hesperian Blvd,37.6656577,-122.1170392,NA
53363,W A St & Royal Av,37.6658947,-122.1128233,NA
53357,W A St & Victory Dr,37.6660184,-122.1105399,NA
51060,W Tennyson Rd & Bahama Av,37.6287786,-122.1018857,NA
54653,W Tennyson Rd & Bahama Av,37.6289023,-122.1021473,NA
51002,W Tennyson Rd & Baldwin St,37.6327708,-122.0670406,NA
51090,W Tennyson Rd & Baldwin St,37.6325963,-122.0667697,NA
52299,W Tennyson Rd & Calaroga Av (St. Rose Hospital),37.6315115,-122.0892494,NA
52001,W Tennyson Rd & Calaroga Av (St. Rose Hospital),37.6318094,-122.0903105,NA
58458,W Tennyson Rd & Dickens Av,37.6312139,-122.0737808,NA
59119,W Tennyson Rd & Dickens Av,37.6314212,-122.0742216,NA
52444,W Tennyson Rd & Hesperian Blvd (Kaiser Hospital),37.6309999,-122.0960618,NA
55671,W Tennyson Rd & Hesperian Blvd,37.6307049,-122.0975503,NA
57676,W Tennyson Rd & Huntwood Av,37.6334993,-122.0653869,NA
55672,W Tennyson Rd & Lustig Ct,37.6337892,-122.0641209,NA
56645,W Tennyson Rd & Pompano Av,37.6314899,-122.0778505,NA
56651,W Tennyson Rd & Pompano Av,37.6312124,-122.0772116,NA
59960,W Tennyson Rd & Portsmouth Av,37.6270832,-122.1047892,NA
53234,W Tennyson Rd & Portsmouth Av,37.6271343,-122.1050977,NA
56595,W Tennyson Rd & Ruus Rd,37.6317946,-122.0695979,NA
57002,W Tennyson Rd & Ruus Rd,37.6318154,-122.0685587,NA
55199,W Winton Av & Amador St,37.6586851,-122.095875,NA
52733,W Winton Av & Cabot Blvd,37.6526303,-122.1381293,NA
52710,W Winton Av & Corsair Blvd,37.6531504,-122.1242288,NA
57003,W Winton Av & Corsair Blvd,37.652949,-122.1240253,NA
53223,W Winton Av & D St,37.6620193,-122.0875418,NA
55225,W Winton Av & Edloe Dr (County Building),37.6584556,-122.0958869,NA
56635,W Winton Av & Park St,37.6616812,-122.0882908,NA
50558,W Winton Av & Saklan Rd,37.6530046,-122.1177442,NA
50880,W Winton Av & Santa Clara St,37.6578801,-122.0980041,NA
56866,W Winton Av & Santa Clara St,37.6577531,-122.097748,NA
56330,W Winton Av & Wright Dr,37.6537791,-122.1087171,NA
55673,W Winton Av & Wright Dr,37.6533541,-122.1091506,NA
58777,West Loop Rd & CSU East Bay Library,37.6559007,-122.0573481,NA
51650,West Loop Rd & Carlos Bee Blvd,37.6588875,-122.0596312,NA
54478,Whipple Rd & Amaral St,37.6059338,-122.0578705,NA
51003,Whipple Rd & Huntwood Av,37.6061841,-122.0552857,NA
56620,Whipple Rd & Industrial Pkwy Sw,37.6070015,-122.0640448,NA
52201,Whipple Rd & Wiegman Rd,37.6065943,-122.061278,NA
54745,Whitman St & Berry Av,37.6559555,-122.0747083,NA
57454,Whitman St & Berry Av,37.6561873,-122.0746661,NA
51887,Whitman St & Cody Rd,37.6531375,-122.0722754,NA
53250,Whitman St & Cody Rd,37.6529963,-122.0723348,NA
55029,Whitman St & Jane Av,37.6511246,-122.0709122,NA
54489,Whitman St & Jane Av,37.6512789,-122.0708897,NA
54234,Whitman St & Sycamore Av,37.6618596,-122.0791446,NA
59944,Hesperian Blvd & W Winton Av,37.653893,-122.1105584,NA
57009,Tennyson Rd & Oliver Dr,37.6292604,-122.1005962,NA
53819,Meekland Av & A St,37.6670282,-122.0990461,NA
56185,Meekland Av & A St,37.6669499,-122.0991439,NA
57151,Mission Blvd & Industrial Pkwy,37.629229,-122.0467268,NA
55061,Whitman St & Sycamore Av,37.6617113,-122.079252,NA
54412,Tennyson Rd & Oliver Dr,37.6296308,-122.10028,NA
56276,Depot Rd & Clawiter Rd,37.6386848,-122.1200983,NA
50350,Campus Dr & Hayward Blvd,37.6606459,-122.0579639,NA
53711,Gading Rd & Huntwood Way,37.6479101,-122.0812975,NA
54423,Hesperian Blvd & Industrial Blvd,37.6158639,-122.0877279,NA
50238,Chabot College,37.6434062,-122.1050452,NA
50239,Chabot College,37.6432044,-122.1051253,NA
50464,Hesperian Blvd & La Playa Dr,37.647028,-122.1067868,NA
58678,Carter Av & Sycamore St,37.5283575,-122.036972,NA
56376,Carter Av & Sycamore St,37.528068,-122.036882,NA
52224,Cedar Blvd & Balentine Dr (Newark Memorial High),37.5222694,-121.9996284,NA
53112,Cedar Blvd & Balentine Dr,37.5220165,-121.9998588,NA
56186,Cedar Blvd & Birch St,37.527226,-122.008888,NA
52887,Cedar Blvd & Birch St,37.52738,-122.008521,NA
55679,Cedar Blvd & Central Av,37.5368107,-122.0182767,NA
56976,Cedar Blvd & Central Av,37.536673,-122.018541,NA
57116,Cedar Blvd & Chapman Dr,37.549189,-122.0435602,NA
55062,Cedar Blvd & Chapman Dr,37.5496139,-122.0425705,NA
53953,Cedar Blvd & Civic Terrace Av,37.5413198,-122.0248795,NA
57121,Cedar Blvd & Dupont Av,37.546324,-122.0300286,NA
56670,Cedar Blvd & Edgewater Dr,37.5482402,-122.0324105,NA
55063,Cedar Blvd & Edgewater Dr,37.5486627,-122.032673,NA
53887,Cedar Blvd & Forbes Dr,37.5393312,-122.0213784,NA
59511,Cedar Blvd & Joaquin Murieta Av,37.5207729,-121.9962523,NA
57011,Cedar Blvd & Joaquin Murieta Av,37.5202253,-121.9957501,NA
52344,Cedar Blvd & Lake Blvd,37.5503815,-122.0370059,NA
58567,Cedar Blvd & Lake Blvd,37.5503345,-122.0360973,NA
57232,Cedar Blvd & Moores Av,37.531663,-122.00866,NA
51102,Cedar Blvd & Moores Av,37.531542,-122.008008,NA
56268,Cedar Blvd & Mowry Av,37.5250852,-122.0083149,NA
51103,Cedar Blvd & Mowry Av,37.5244128,-122.0073553,NA
53393,Cedar Blvd & Mowry Av,37.525279,-122.008189,NA
55784,Cedar Blvd & Musick Av,37.5449467,-122.0293097,NA
53347,Cedar Blvd & N Magazine,37.5232137,-122.0047018,NA
51158,Cedar Blvd & N Magazine,37.5235996,-122.004832,NA
55347,Cedar Blvd & Newark Blvd,37.5485234,-122.0438268,NA
55069,Cedar Blvd & Port Sailwood Dr,37.54512,-122.029026,NA
56690,Cedar Blvd & Robertson Av,37.535057,-122.014876,NA
50552,Cedar Blvd & S Magazine (Newpark Mall),37.5224162,-122.002168,NA
53301,Cedar Blvd & S Magazine,37.5221193,-122.0018492,NA
56286,Cedar Blvd & Smith Av,37.5336599,-122.0125135,NA
51106,Cedar Blvd & Smith Av,37.533443,-122.011598,NA
52988,Cedar Blvd & Stevenson Blvd,37.5186215,-121.992635,NA
58875,Cedar Blvd & Stevenson Blvd,37.5186332,-121.9921116,NA
51130,Cedar Blvd & Thornton Av,37.5427596,-122.027518,NA
53395,Cedar Blvd & Thornton Av,37.5429421,-122.0272783,NA
53959,Central Av & Birch St,37.5338424,-122.0218397,NA
57540,Central Av & Birch St,37.5337492,-122.021517,NA
57119,Central Av & Cedar Blvd,37.5365798,-122.0196082,NA
51109,Central Av & Cherry St,37.5281699,-122.0264813,NA
56383,Central Av & Morton Av,37.5222215,-122.0315579,NA
55091,Central Av & Morton Av,37.5219813,-122.0315109,NA
57910,Central Av & Sycamore St,37.5250757,-122.0286058,NA
59676,Central Av & Sycamore St,37.5248477,-122.0290989,NA
56636,Cherry St & Central Av,37.5282553,-122.0251179,NA
59710,Cherry St & Jasmine Av,37.5212688,-122.0116138,NA
52116,Cherry St & Jasmine Av,37.5217184,-122.0118313,NA
54080,Cherry St & Moores Av,37.5234244,-122.0151354,NA
57101,Cherry St & Moores Av,37.5231804,-122.0151553,NA
57212,Cherry St & Robertson Av,37.5271441,-122.0223053,NA
55092,Cherry St & Robertson Av,37.5268723,-122.0223525,NA
55093,Cherry St & Smith Av,37.5252473,-122.0186516,NA
53312,Cherry St & Smith Av,37.5250516,-122.0188252,NA
51330,Filbert St & Enterprise Dr,37.5252696,-122.0363285,NA
59059,Filbert St & Enterprise Dr,37.5250711,-122.0365045,NA
57252,Mowry Av & Alpine St,37.5227218,-122.0091555,NA
55895,Mowry Av & Cedar Blvd,37.5255415,-122.0069722,NA
51898,Mowry Av & Cherry St,37.5210028,-122.0095909,NA
54567,Mowry Av & Rockrose Dr,37.523535,-122.008437,NA
51112,New Park Mall,37.5272764,-122.0022669,NA
55754,Newark Blvd & Brittany Av,37.5458199,-122.0410413,NA
52898,Newark Blvd & Central Av,37.5322656,-122.0230747,NA
55193,Newark Blvd & Central Av,37.5328024,-122.0236062,NA
53550,Newark Blvd & Civic Terrace Av,37.535963,-122.0291056,NA
54077,Newark Blvd & Civic Terrace Av,37.5361629,-122.0289494,NA
55740,Newark Blvd & Jarvis Av,37.5509496,-122.0507586,NA
51181,Newark Blvd & Jarvis Av,37.5513031,-122.0506352,NA
56990,Newark Blvd & Lafayette Av,37.5435975,-122.0362362,NA
54850,Newark Blvd & Lafayette Av,37.5435516,-122.0357612,NA
58800,Newark Blvd & Lido Faire,37.5490048,-122.0467552,NA
57122,Newark Blvd & Mayhews Landing Rd,37.5404272,-122.0341413,NA
55196,Newark Blvd & Musick Av,37.5408325,-122.0340285,NA
53480,Newark Blvd & Newark Community Park,37.5472733,-122.0427627,NA
53456,Newark Blvd & Rosemont Square,37.5493815,-122.0467619,NA
56835,Newark Blvd & Ruschin Dr,37.5458684,-122.0405732,NA
57229,Newark Blvd & Thornton Av,37.5367116,-122.0300096,NA
55414,Newark Blvd & Thornton Av,37.536597,-122.0303304,NA
57588,Sycamore St & Thornton Av,37.529796,-122.038098,NA
57559,Sycamore St & Thornton Av,37.5298739,-122.0378313,NA
56480,Thornton Av & Cedar Blvd,37.543396,-122.0256614,NA
50430,Thornton Av & Cherry St,37.5332301,-122.033798,NA
56853,Thornton Av & Mayhews Landing Rd,37.5388792,-122.0291923,NA
56840,Thornton Av & Mayhews Landing Rd,37.539423,-122.0284252,NA
58340,Thornton Av & Newark Blvd,37.5364286,-122.0312523,NA
59789,Thornton Av & Olive St,37.5308443,-122.0355816,NA
55647,Thornton Av & Ruschin Dr,37.5407663,-122.0273322,NA
58940,Thornton Av & Ruschin Dr,37.5412345,-122.0272405,NA
51040,Cedar Blvd & Forbes Dr,37.5397244,-122.0214282,NA
55023,Cedar Blvd & San Antonio Way,37.5409156,-122.0237088,NA
58610,Mowry Av & Silliman Cr.,37.5174385,-122.0109165,NA
50567,Cedar Av & Newark High School Library,37.5220594,-122.00075030000001,NA
51240,Filbert St & Central Av,37.5220755,-122.0347184,NA
57991,Filbert St & Central Av,37.5217879,-122.0347416,NA
55256,Ohlone College Newark Campus,37.5178547,-122.0047365,NA
58290,Central Av & Cherry St,37.529523,-122.0249291,NA
57992,Mission Blvd & Gurdwara Rd,37.5852902,-121.9966401,NA
50179,Filbert St & Enterprise Dr,37.5236513,-122.0357335,NA
53326,104th Av & Birch St,37.7416345,-122.1620378,NA
53540,104th Av & Birch St,37.7415252,-122.1619362,NA
55206,104th Av & Plymouth St,37.7408899,-122.1646511,NA
51187,104th Av & Plymouth St,37.7410636,-122.1644793,NA
51989,104th Av & Sunnyside St,37.742086,-122.1594,NA
59151,104th Av & Sunnyside St,37.7421904,-122.1596029,NA
59159,105th Av & E St,37.7365734,-122.1726341,NA
51451,105th Av & E St,37.7363141,-122.1727653,NA
54020,105th Av & Edes Av,37.7334415,-122.1782639,NA
57993,105th Av & Graffian St,37.738125,-122.1688905,NA
57996,105th Av & Graffian St,37.7383938,-122.1687508,NA
58360,105th Av & Pontiac St,37.738876,-122.1672988,NA
59022,105th Av & San Leandro St,37.7356451,-122.1746487,NA
59195,105th Av & San Leandro St,37.7354615,-122.1745966,NA
54030,106th Av & Bancroft Av,37.7415891,-122.1564958,NA
57567,106th Av & Bancroft Av,37.7416594,-122.1567225,NA
58840,106th Av & Longfellow Av,37.7420831,-122.1551899,NA
58390,106th Av & Voltaire Av,37.7421056,-122.1546609,NA
55201,10th St & Adeline St,37.8066499,-122.2870121,NA
53552,10th St & Adeline St,37.806495,-122.2868855,NA
55441,10th St & Fallon St,37.7976554,-122.2631755,NA
59033,10th St & Filbert St,37.8060137,-122.2842138,NA
59066,10th St & Filbert St,37.8058854,-122.2841775,NA
54575,10th St & Kaiser Convention Center,37.7966997,-122.2607537,NA
58833,10th St & Market St,37.805266,-122.2815897,NA
54500,10th St & Market St,37.8054916,-122.2817253,NA
59225,10th St & Union St,37.8069825,-122.2890511,NA
54777,11th St & Broadway (12th St BART),37.8022679,-122.2727474,NA
52287,11th St & Brush St,37.8052283,-122.2802435,NA
59444,11th St & Clay St,37.802963,-122.274464,NA
53334,11th St & Franklin St,37.8015436,-122.2708682,NA
51110,11th St & Jefferson St,37.8036582,-122.276263,NA
55557,12th St & Broadway (12th St BART),37.803168,-122.272624,NA
53329,12th St & Martin Luther King Jr Way,37.8050241,-122.2771031,NA
55570,12th St & Oak St,37.7999002,-122.264052,NA
51567,12th St & West St (In Middle Of Traffic Island),37.806067,-122.280222,NA
56695,13th Av & Bella Vista Av,37.7997228,-122.2349181,NA
55424,13th Av & E 25th St,37.797185,-122.2370657,NA
55312,13th Av & E 26th St,37.7975189,-122.2366348,NA
55901,13th Av & E 27th St,37.7983182,-122.2360103,NA
57995,13th Av & E 31st St,37.7997991,-122.2346605,NA
55102,14th Av & 19th Av,37.7973861,-122.2308025,NA
54845,14th Av & International Blvd,37.7895953,-122.2458001,NA
57554,14th Av & E 15th St,37.7903198,-122.2447758,NA
55261,15th Av & E 17th St,37.7915937,-122.2426123,NA
57233,14th Av & E 21st St,37.7936312,-122.2401318,NA
55464,14th Av & E 21st St,37.7939972,-122.239996,NA
55263,14th Av & E 24th St,37.7951909,-122.2368818,NA
55945,14th Av & E 24th St,37.7954705,-122.2366708,NA
54150,14th Av & E 26th St,37.7960128,-122.2346067,NA
57353,14th Av & E 26th St,37.7961908,-122.234681,NA
51185,14th Av & E 29th St,37.7975106,-122.2310168,NA
52567,14th Av & E 31st St,37.7987936,-122.2292903,NA
58454,14th Av & Vallecito Pl,37.7966505,-122.2334076,NA
54250,14th Av & Vallecito Pl,37.7966001,-122.232974,NA
58854,14th St & Adeline St,37.8093557,-122.2858639,NA
57878,14th St & Adeline St,37.8096257,-122.2859598,NA
56600,14th St & Broadway (12th St BART),37.8047472,-122.2720121,NA
55503,14th St & Broadway (12th St BART),37.804447,-122.271746,NA
54177,14th St & Brush St,37.8073203,-122.2792488,NA
53567,14th St & Brush St,37.8074637,-122.2789681,NA
52240,14th St & Clay St,37.8050901,-122.2733525,NA
57477,14th St & Clay St,37.80552,-122.2739084,NA
59229,14th St & Filbert St,37.8087472,-122.2831026,NA
53799,14th St & Filbert St,37.808968,-122.282787,NA
54277,14th St & Franklin St,37.8038709,-122.2697415,NA
54457,14th St & Franklin St,37.8038323,-122.2701931,NA
55912,14th St & Harrison St,37.802933,-122.267375,NA
59007,14th St & Harrison St,37.8029564,-122.2679187,NA
55140,14th St & Jackson St,37.8019849,-122.2654393,NA
58563,14th St & Mandela Pkwy,37.810698,-122.2905885,NA
53387,14th St & Mandela Pkwy,37.8105938,-122.2910108,NA
55854,14th St & Market St,37.8086002,-122.2813535,NA
55113,14th St & Market St,37.808164,-122.2811547,NA
50454,14th St & Martin Luther King Jr Way,37.8062221,-122.2758028,NA
52452,14th St & Martin Luther King Jr Way,37.8061951,-122.2761605,NA
55103,14th St & Oak St,37.801271,-122.263183,NA
59557,14th St & Oak St,37.801061,-122.2630844,NA
53460,14th St & Poplar St,37.810341,-122.2890567,NA
53490,14th St & Poplar St,37.8100819,-122.2890561,NA
55655,1st Av Pl & International Blvd,37.7987723,-122.2567089,NA
59911,1st Av & International Blvd,37.7990607,-122.2565121,NA
55564,1st Av & International Blvd,37.798959,-122.2569687,NA
53888,Thomas L Berkley Way (20th St) & Broadway,37.80908,-122.2684,NA
55240,Thomas L Berkley Way & Franklin St (19th St BART),37.8087932,-122.2673073,NA
56464,Thomas L Berkley Way (20th St) & Franklin St,37.808653,-122.267431,NA
59567,Thomas L Berkley Way (20th St) & San Pablo Av,37.81001,-122.272771,NA
55770,Thomas L Berkley Way (20th St) & San Pablo Av,37.810217,-122.2729684,NA
51100,Thomas L Berkley Way (20th St) & Webster St,37.808212,-122.265767,NA
57556,TL Berkley Way (20th St)  & Webster St (Kaiser Ct),37.808435,-122.265725,NA
55087,23rd Av & 22nd Av,37.7923426,-122.2276407,NA
55187,23rd Av & 29th Av,37.7730043,-122.2359781,NA
54554,23rd Av & E 16th St,37.7848214,-122.2344422,NA
51558,23rd Av & E 19th St,37.7864435,-122.2325669,NA
58211,23rd Av & E 19th St,37.7867404,-122.2325025,NA
58554,23rd Av & E 21st St,37.7885445,-122.2317081,NA
59957,23rd Av & E 21st St,37.7889003,-122.2315763,NA
58322,23rd Av & E 22nd St,37.7895898,-122.2309292,NA
53155,23rd Av & E 24th St,37.7906981,-122.2291729,NA
57795,23rd Av & E 24th St,37.7908974,-122.2290227,NA
57022,23rd Av & E 26th St,37.7921312,-122.2276272,NA
58080,23rd Av & E 27th St,37.7934656,-122.2266869,NA
58088,23rd Av & E 27th St,37.7936883,-122.2267505,NA
58757,23rd Av & E 29th St,37.7953783,-122.2260683,NA
57033,23rd Av & E 29th St,37.795678,-122.2261237,NA
59166,23rd Av & E 30th St,37.7965729,-122.2258417,NA
55109,23rd Av & E 30th St,37.7965728,-122.2256935,NA
50553,23rd Av & Foothill Blvd (Garfield School),37.7853368,-122.2340365,NA
54337,29th Av & Glascock St,37.7726793,-122.2353838,NA
58856,29th Av & Railroad Crossing,37.7775924,-122.2308802,NA
55219,Hollis St & 34th St,37.8261356,-122.284116,NA
58188,35th Av & Allendale Av,37.7891817,-122.2084833,NA
59459,35th Av & Allendale Av,37.7891197,-122.2083324,NA
55269,35th Av & Arizona St,37.7961783,-122.196774,NA
54155,35th Av & Brookdale Av,37.7884285,-122.2097718,NA
52454,35th Av & Brookdale Av,37.788238,-122.2098312,NA
59353,35th Av & California St,37.7955244,-122.197412,NA
54045,35th Av & California St,37.7954413,-122.1980371,NA
50559,35th Av & Custer St,37.7854406,-122.2146169,NA
55020,35th Av & Davis St,37.7858265,-122.2142096,NA
52552,35th Av & Delaware St,37.7928412,-122.2024936,NA
53123,35th Av & International Blvd,37.776718700000004,-122.2226378,NA
55512,35th Av & International Blvd,37.7764338,-122.2225803,NA
54390,35th Av & International Blvd,37.7758882,-122.2229865,NA
54950,35th Av & E 16th St (St. Elizabeth High School),37.7785295,-122.2215429,NA
51521,35th Av & E 16th St,37.7782684,-122.2214955,NA
56541,35th Av & E 17th St,37.7799617,-122.2206548,NA
59917,35th Av & E 17th St,37.7799722,-122.2204589,NA
59975,35th Av & Foothill Blvd,37.7825049,-122.2188979,NA
56622,35th Av & Foothill Blvd,37.7818663,-122.2192959,NA
58878,35th Av & Galindo St (Calvin Simmons Middle Sch.),37.7844618,-122.2165017,NA
52258,35th Av & Galindo St (Calvin Simmons Middle Sch.),37.7843176,-122.2165025,NA
56140,35th Av & Jordan Rd,37.7987663,-122.1918639,NA
56240,35th Av & Libby Ct,37.7976812,-122.1935437,NA
59927,35th Av & Libby Ct,37.7977779,-122.1939043,NA
55688,35th Av & Lynde St,37.7867813,-122.2125801,NA
54665,35th Av & Lynde St,37.7867071,-122.2124497,NA
55509,35th Av & MacArthur Blvd,37.7939372,-122.2006183,NA
